{
"type": "FeatureCollection",
"name": "CollegesUniversities",
"crs": { "type": "name", "properties": { "name": "urn:ogc:def:crs:OGC:1.3:CRS84" } },
"features": [
{ "type": "Feature", "properties": { "OBJECTID": 5, "IPEDSID": "455141", "NAME": "AVEDA INSTITUTE-CHAPEL HILL", "ADDRESS": "201 S. ESTES DRIVE, SPACE 200 B", "CITY": "CHAPEL HILL", "STATE": "NC", "ZIP": "27514", "ZIP4": "7001", "TELEPHONE": "(919) 960-4769", "TYPE": "3", "STATUS": "A", "POPULATION": 241, "COUNTY": "ORANGE", "COUNTYFIPS": "37135", "COUNTRY": "USA", "LATITUDE": 35.927944, "LONGITUDE": -79.026769, "NAICS_CODE": "611511", "NAICS_DESC": "COSMETOLOGY AND BARBER SCHOOLS", "SOURCE": "https://nces.ed.gov/collegenavigator/?id=455141", "SOURCEDATE": "2011-06-02T00:00:00Z", "VAL_METHOD": "IMAGERY/OTHER", "VAL_DATE": "2019-03-28T00:00:00Z", "WEBSITE": "https://www.nurturavedainstitutes.com/chapel-hill/", "STFIPS": "37", "COFIPS": "135", "SECTOR": "9", "LEVEL_": "2", "HI_OFFER": "0", "DEG_GRANT": "2", "LOCALE": "13", "CLOSE_DATE": "-2", "MERGE_ID": "-2", "ALIAS": "NOT AVAILABLE", "SIZE_SET": "-2", "INST_SIZE": "1", "PT_ENROLL": -999, "FT_ENROLL": 216, "TOT_ENROLL": 216, "HOUSING": "2", "DORM_CAP": -999, "TOT_EMP": 25, "SHELTER_ID": "NOT AVAILABLE" }, "geometry": { "type": "Point", "coordinates": [ -79.026769, 35.927944 ] } },
{ "type": "Feature", "properties": { "OBJECTID": 26, "IPEDSID": "199148", "NAME": "UNIVERSITY OF NORTH CAROLINA AT GREENSBORO", "ADDRESS": "1400 SPRING GARDEN ST", "CITY": "GREENSBORO", "STATE": "NC", "ZIP": "27402", "ZIP4": "6170", "TELEPHONE": "(336) 334-5000", "TYPE": "1", "STATUS": "A", "POPULATION": 22811, "COUNTY": "GUILFORD", "COUNTYFIPS": "37081", "COUNTRY": "USA", "LATITUDE": 36.065604456000074, "LONGITUDE": -79.813055998999971, "NAICS_CODE": "611310", "NAICS_DESC": "COLLEGES, UNIVERSITIES, AND PROFESSIONAL SCHOOLS", "SOURCE": "https://nces.ed.gov/collegenavigator/?id=199148", "SOURCEDATE": "2009-10-13T00:00:00Z", "VAL_METHOD": "IMAGERY", "VAL_DATE": "2015-11-03T00:00:00Z", "WEBSITE": "www.uncg.edu/", "STFIPS": "37", "COFIPS": "081", "SECTOR": "1", "LEVEL_": "2", "HI_OFFER": "11", "DEG_GRANT": "1", "LOCALE": "11", "CLOSE_DATE": "-2", "MERGE_ID": "-2", "ALIAS": "UNCG", "SIZE_SET": "16", "INST_SIZE": "4", "PT_ENROLL": 4666, "FT_ENROLL": 15098, "TOT_ENROLL": 19764, "HOUSING": "1", "DORM_CAP": 5660, "TOT_EMP": 3047, "SHELTER_ID": "NOT AVAILABLE" }, "geometry": { "type": "Point", "coordinates": [ -79.813055998999971, 36.065604456000074 ] } },
{ "type": "Feature", "properties": { "OBJECTID": 95, "IPEDSID": "453163", "NAME": "STRAYER UNIVERSITY-NORTH CAROLINA", "ADDRESS": "4 COPLEY PKWY", "CITY": "MORRISVILLE", "STATE": "NC", "ZIP": "27560", "ZIP4": "NOT AVAILABLE", "TELEPHONE": "(877) 445-7180", "TYPE": "3", "STATUS": "A", "POPULATION": 5441, "COUNTY": "WAKE", "COUNTYFIPS": "37183", "COUNTRY": "USA", "LATITUDE": 35.865460475000077, "LONGITUDE": -78.822451901999955, "NAICS_CODE": "611310", "NAICS_DESC": "COLLEGES, UNIVERSITIES, AND PROFESSIONAL SCHOOLS", "SOURCE": "https://nces.ed.gov/collegenavigator/?id=453163", "SOURCEDATE": "2013-06-25T00:00:00Z", "VAL_METHOD": "IMAGERY/OTHER", "VAL_DATE": "2016-05-20T00:00:00Z", "WEBSITE": "www.strayer.edu/campus-locations/north-carolina/research-triangle-park", "STFIPS": "37", "COFIPS": "183", "SECTOR": "3", "LEVEL_": "3", "HI_OFFER": "20", "DEG_GRANT": "1", "LOCALE": "21", "CLOSE_DATE": "-2", "MERGE_ID": "-2", "ALIAS": "NOT AVAILABLE", "SIZE_SET": "18", "INST_SIZE": "3", "PT_ENROLL": 5156, "FT_ENROLL": 285, "TOT_ENROLL": 5441, "HOUSING": "2", "DORM_CAP": -999, "TOT_EMP": -999, "SHELTER_ID": "NOT AVAILABLE" }, "geometry": { "type": "Point", "coordinates": [ -78.822451901999955, 35.865460475000077 ] } },
{ "type": "Feature", "properties": { "OBJECTID": 184, "IPEDSID": "434292", "NAME": "ANSON COLLEGE OF COSMETOLOGY", "ADDRESS": "1217 EAST CASWELL STREET", "CITY": "WADESBORO", "STATE": "NC", "ZIP": "28170", "ZIP4": "2147", "TELEPHONE": "(704) 694-6677", "TYPE": "3", "STATUS": "A", "POPULATION": 11, "COUNTY": "ANSON", "COUNTYFIPS": "37007", "COUNTRY": "USA", "LATITUDE": 34.96348, "LONGITUDE": -80.055061, "NAICS_CODE": "611519", "NAICS_DESC": "OTHER TECHNICAL AND TRADE SCHOOLS", "SOURCE": "https://nces.ed.gov/collegenavigator/?id=434292", "SOURCEDATE": "2018-04-10T00:00:00Z", "VAL_METHOD": "IMAGERY/OTHER", "VAL_DATE": "2018-04-10T00:00:00Z", "WEBSITE": "ansoncollegeofcosmetology.com/", "STFIPS": "37", "COFIPS": "007", "SECTOR": "9", "LEVEL_": "3", "HI_OFFER": "0", "DEG_GRANT": "2", "LOCALE": "32", "CLOSE_DATE": "-2", "MERGE_ID": "-2", "ALIAS": "NOT AVAILABLE", "SIZE_SET": "-2", "INST_SIZE": "1", "PT_ENROLL": -999, "FT_ENROLL": 3, "TOT_ENROLL": 3, "HOUSING": "2", "DORM_CAP": -999, "TOT_EMP": 8, "SHELTER_ID": "NOT AVAILABLE" }, "geometry": { "type": "Point", "coordinates": [ -80.055061, 34.96348 ] } },
{ "type": "Feature", "properties": { "OBJECTID": 252, "IPEDSID": "489344", "NAME": "CHAMBERLAIN UNIVERSITY-NORTH CAROLINA", "ADDRESS": "2015 AYRSLEY TOWN BOULEVARD, SUITE 204", "CITY": "CHARLOTTE", "STATE": "NC", "ZIP": "28273", "ZIP4": "NOT AVAILABLE", "TELEPHONE": "(980) 939-6241", "TYPE": "3", "STATUS": "A", "POPULATION": 259, "COUNTY": "MECKLENBURG", "COUNTYFIPS": "37119", "COUNTRY": "USA", "LATITUDE": 35.13766, "LONGITUDE": -80.931971, "NAICS_CODE": "611310", "NAICS_DESC": "COLLEGES, UNIVERSITIES, AND PROFESSIONAL SCHOOLS", "SOURCE": "https://nces.ed.gov/collegenavigator/?id=489344", "SOURCEDATE": "2018-04-10T00:00:00Z", "VAL_METHOD": "IMAGERY/OTHER", "VAL_DATE": "2018-04-10T00:00:00Z", "WEBSITE": "https://www.chamberlain.edu/", "STFIPS": "37", "COFIPS": "119", "SECTOR": "3", "LEVEL_": "3", "HI_OFFER": "30", "DEG_GRANT": "1", "LOCALE": "11", "CLOSE_DATE": "-2", "MERGE_ID": "-2", "ALIAS": "CHAMBERLAIN COLLEGE OF NURSING-CHARLOTTE", "SIZE_SET": "-2", "INST_SIZE": "1", "PT_ENROLL": 156, "FT_ENROLL": 103, "TOT_ENROLL": 259, "HOUSING": "2", "DORM_CAP": -999, "TOT_EMP": -999, "SHELTER_ID": "NOT AVAILABLE" }, "geometry": { "type": "Point", "coordinates": [ -80.931971, 35.13766 ] } },
{ "type": "Feature", "properties": { "OBJECTID": 312, "IPEDSID": "197850", "NAME": "SOUTH PIEDMONT COMMUNITY COLLEGE", "ADDRESS": "680 HIGHWAY 74 WEST", "CITY": "POLKTON", "STATE": "NC", "ZIP": "28135", "ZIP4": "NOT AVAILABLE", "TELEPHONE": "(704) 272-5300", "TYPE": "1", "STATUS": "A", "POPULATION": 3421, "COUNTY": "ANSON", "COUNTYFIPS": "37007", "COUNTRY": "USA", "LATITUDE": 35.000312, "LONGITUDE": -80.211087, "NAICS_CODE": "611210", "NAICS_DESC": "JUNIOR COLLEGES", "SOURCE": "https://nces.ed.gov/collegenavigator/?id=197850", "SOURCEDATE": "2009-12-31T00:00:00Z", "VAL_METHOD": "IMAGERY", "VAL_DATE": "2016-07-07T00:00:00Z", "WEBSITE": "https://www.spcc.edu/", "STFIPS": "37", "COFIPS": "007", "SECTOR": "4", "LEVEL_": "1", "HI_OFFER": "40", "DEG_GRANT": "1", "LOCALE": "42", "CLOSE_DATE": "-2", "MERGE_ID": "-2", "ALIAS": "NOT AVAILABLE", "SIZE_SET": "6", "INST_SIZE": "2", "PT_ENROLL": 2414, "FT_ENROLL": 605, "TOT_ENROLL": 3019, "HOUSING": "2", "DORM_CAP": -999, "TOT_EMP": 402, "SHELTER_ID": "NOT AVAILABLE" }, "geometry": { "type": "Point", "coordinates": [ -80.211087, 35.000312 ] } },
{ "type": "Feature", "properties": { "OBJECTID": 313, "IPEDSID": "198039", "NAME": "BLUE RIDGE COMMUNITY COLLEGE", "ADDRESS": "180 WEST CAMPUS DRIVE", "CITY": "FLAT ROCK", "STATE": "NC", "ZIP": "28731", "ZIP4": "4728", "TELEPHONE": "(828) 694-1700", "TYPE": "1", "STATUS": "A", "POPULATION": 2826, "COUNTY": "HENDERSON", "COUNTYFIPS": "37089", "COUNTRY": "USA", "LATITUDE": 35.3080401, "LONGITUDE": -82.4255439, "NAICS_CODE": "611210", "NAICS_DESC": "JUNIOR COLLEGES", "SOURCE": "https://nces.ed.gov/collegenavigator/?id=198039", "SOURCEDATE": "2009-10-13T00:00:00Z", "VAL_METHOD": "IMAGERY", "VAL_DATE": "2016-07-07T00:00:00Z", "WEBSITE": "www.blueridge.edu/", "STFIPS": "37", "COFIPS": "089", "SECTOR": "4", "LEVEL_": "3", "HI_OFFER": "40", "DEG_GRANT": "1", "LOCALE": "21", "CLOSE_DATE": "-2", "MERGE_ID": "-2", "ALIAS": "NOT AVAILABLE", "SIZE_SET": "4", "INST_SIZE": "2", "PT_ENROLL": 1734, "FT_ENROLL": 665, "TOT_ENROLL": 2399, "HOUSING": "2", "DORM_CAP": -999, "TOT_EMP": 427, "SHELTER_ID": "NOT AVAILABLE" }, "geometry": { "type": "Point", "coordinates": [ -82.42554389999998, 35.308040100000028 ] } },
{ "type": "Feature", "properties": { "OBJECTID": 314, "IPEDSID": "198367", "NAME": "CRAVEN COMMUNITY COLLEGE", "ADDRESS": "800 COLLEGE CT", "CITY": "NEW BERN", "STATE": "NC", "ZIP": "28562", "ZIP4": "4900", "TELEPHONE": "(252) 638-7200", "TYPE": "1", "STATUS": "A", "POPULATION": 3143, "COUNTY": "CRAVEN", "COUNTYFIPS": "37049", "COUNTRY": "USA", "LATITUDE": 35.111515989000054, "LONGITUDE": -77.102231916999983, "NAICS_CODE": "611210", "NAICS_DESC": "JUNIOR COLLEGES", "SOURCE": "https://nces.ed.gov/collegenavigator/?id=198367", "SOURCEDATE": "2009-10-13T00:00:00Z", "VAL_METHOD": "IMAGERY", "VAL_DATE": "2016-07-07T00:00:00Z", "WEBSITE": "www.cravencc.edu/", "STFIPS": "37", "COFIPS": "049", "SECTOR": "4", "LEVEL_": "3", "HI_OFFER": "40", "DEG_GRANT": "1", "LOCALE": "13", "CLOSE_DATE": "-2", "MERGE_ID": "-2", "ALIAS": "NOT AVAILABLE", "SIZE_SET": "2", "INST_SIZE": "2", "PT_ENROLL": 1903, "FT_ENROLL": 726, "TOT_ENROLL": 2629, "HOUSING": "2", "DORM_CAP": -999, "TOT_EMP": 514, "SHELTER_ID": "NOT AVAILABLE" }, "geometry": { "type": "Point", "coordinates": [ -77.102231916999983, 35.111515989000054 ] } },
{ "type": "Feature", "properties": { "OBJECTID": 315, "IPEDSID": "198534", "NAME": "FAYETTEVILLE TECHNICAL COMMUNITY COLLEGE", "ADDRESS": "2201 HULL RD", "CITY": "FAYETTEVILLE", "STATE": "NC", "ZIP": "28303", "ZIP4": "0236", "TELEPHONE": "(910) 678-8400", "TYPE": "1", "STATUS": "A", "POPULATION": 12266, "COUNTY": "CUMBERLAND", "COUNTYFIPS": "37051", "COUNTRY": "USA", "LATITUDE": 35.068313135000039, "LONGITUDE": -78.924514881999983, "NAICS_CODE": "611210", "NAICS_DESC": "JUNIOR COLLEGES", "SOURCE": "https://nces.ed.gov/collegenavigator/?id=198534", "SOURCEDATE": "2009-10-13T00:00:00Z", "VAL_METHOD": "IMAGERY", "VAL_DATE": "2016-07-07T00:00:00Z", "WEBSITE": "https://www.faytechcc.edu/", "STFIPS": "37", "COFIPS": "051", "SECTOR": "4", "LEVEL_": "1", "HI_OFFER": "40", "DEG_GRANT": "1", "LOCALE": "12", "CLOSE_DATE": "-2", "MERGE_ID": "-2", "ALIAS": "FTCC", "SIZE_SET": "2", "INST_SIZE": "4", "PT_ENROLL": 6957, "FT_ENROLL": 3975, "TOT_ENROLL": 10932, "HOUSING": "2", "DORM_CAP": -999, "TOT_EMP": 1334, "SHELTER_ID": "NOT AVAILABLE" }, "geometry": { "type": "Point", "coordinates": [ -78.924514881999983, 35.068313135000039 ] } },
{ "type": "Feature", "properties": { "OBJECTID": 316, "IPEDSID": "198552", "NAME": "FORSYTH TECHNICAL COMMUNITY COLLEGE", "ADDRESS": "2100 SILAS CREEK PKY", "CITY": "WINSTON-SALEM", "STATE": "NC", "ZIP": "27103", "ZIP4": "5197", "TELEPHONE": "(336) 723-0371", "TYPE": "1", "STATUS": "A", "POPULATION": 9084, "COUNTY": "FORSYTH", "COUNTYFIPS": "37067", "COUNTRY": "USA", "LATITUDE": 36.068540105000068, "LONGITUDE": -80.272214879999979, "NAICS_CODE": "611210", "NAICS_DESC": "JUNIOR COLLEGES", "SOURCE": "https://nces.ed.gov/collegenavigator/?id=198552", "SOURCEDATE": "2009-10-13T00:00:00Z", "VAL_METHOD": "IMAGERY", "VAL_DATE": "2016-07-07T00:00:00Z", "WEBSITE": "https://www.forsythtech.edu/", "STFIPS": "37", "COFIPS": "067", "SECTOR": "4", "LEVEL_": "1", "HI_OFFER": "40", "DEG_GRANT": "1", "LOCALE": "12", "CLOSE_DATE": "-2", "MERGE_ID": "-2", "ALIAS": "FORSYTH TECH", "SIZE_SET": "4", "INST_SIZE": "3", "PT_ENROLL": 4875, "FT_ENROLL": 2712, "TOT_ENROLL": 7587, "HOUSING": "2", "DORM_CAP": -999, "TOT_EMP": 1497, "SHELTER_ID": "NOT AVAILABLE" }, "geometry": { "type": "Point", "coordinates": [ -80.272214879999979, 36.068540105000068 ] } },
{ "type": "Feature", "properties": { "OBJECTID": 326, "IPEDSID": "198817", "NAME": "LENOIR COMMUNITY COLLEGE", "ADDRESS": "231 HIGHWAY 58 SOUTH", "CITY": "KINSTON", "STATE": "NC", "ZIP": "28502", "ZIP4": "0188", "TELEPHONE": "(252) 527-6223", "TYPE": "1", "STATUS": "A", "POPULATION": 2839, "COUNTY": "LENOIR", "COUNTYFIPS": "37107", "COUNTRY": "USA", "LATITUDE": 35.234405, "LONGITUDE": -77.571532, "NAICS_CODE": "611210", "NAICS_DESC": "JUNIOR COLLEGES", "SOURCE": "https://nces.ed.gov/collegenavigator/?id=198817", "SOURCEDATE": "2009-12-31T00:00:00Z", "VAL_METHOD": "IMAGERY", "VAL_DATE": "2016-07-07T00:00:00Z", "WEBSITE": "https://www.lenoircc.edu/", "STFIPS": "37", "COFIPS": "107", "SECTOR": "4", "LEVEL_": "1", "HI_OFFER": "40", "DEG_GRANT": "1", "LOCALE": "32", "CLOSE_DATE": "-2", "MERGE_ID": "-2", "ALIAS": "NOT AVAILABLE", "SIZE_SET": "6", "INST_SIZE": "2", "PT_ENROLL": 1643, "FT_ENROLL": 718, "TOT_ENROLL": 2361, "HOUSING": "2", "DORM_CAP": -999, "TOT_EMP": 478, "SHELTER_ID": "NOT AVAILABLE" }, "geometry": { "type": "Point", "coordinates": [ -77.571532, 35.234405 ] } },
{ "type": "Feature", "properties": { "OBJECTID": 327, "IPEDSID": "198987", "NAME": "MITCHELL COMMUNITY COLLEGE", "ADDRESS": "500 W BROAD STREET", "CITY": "STATESVILLE", "STATE": "NC", "ZIP": "28677", "ZIP4": "5293", "TELEPHONE": "(704) 878-3200", "TYPE": "1", "STATUS": "A", "POPULATION": 3821, "COUNTY": "IREDELL", "COUNTYFIPS": "37097", "COUNTRY": "USA", "LATITUDE": 35.782813942000075, "LONGITUDE": -80.894082587999947, "NAICS_CODE": "611210", "NAICS_DESC": "JUNIOR COLLEGES", "SOURCE": "https://nces.ed.gov/collegenavigator/?id=198987", "SOURCEDATE": "2009-10-13T00:00:00Z", "VAL_METHOD": "IMAGERY/OTHER", "VAL_DATE": "2016-07-07T00:00:00Z", "WEBSITE": "https://mitchellcc.edu/", "STFIPS": "37", "COFIPS": "097", "SECTOR": "4", "LEVEL_": "2", "HI_OFFER": "40", "DEG_GRANT": "1", "LOCALE": "21", "CLOSE_DATE": "-2", "MERGE_ID": "-2", "ALIAS": "NOT AVAILABLE", "SIZE_SET": "1", "INST_SIZE": "2", "PT_ENROLL": 2477, "FT_ENROLL": 896, "TOT_ENROLL": 3373, "HOUSING": "2", "DORM_CAP": -999, "TOT_EMP": 448, "SHELTER_ID": "NOT AVAILABLE" }, "geometry": { "type": "Point", "coordinates": [ -80.894082587999947, 35.782813942000075 ] } },
{ "type": "Feature", "properties": { "OBJECTID": 328, "IPEDSID": "199333", "NAME": "PITT COMMUNITY COLLEGE", "ADDRESS": "1986 PITT TECH ROAD", "CITY": "WINTERVILLE", "STATE": "NC", "ZIP": "28590", "ZIP4": "NOT AVAILABLE", "TELEPHONE": "(252) 493-7200", "TYPE": "1", "STATUS": "A", "POPULATION": 8887, "COUNTY": "PITT", "COUNTYFIPS": "37147", "COUNTRY": "USA", "LATITUDE": 35.550591033000046, "LONGITUDE": -77.407202552999934, "NAICS_CODE": "611210", "NAICS_DESC": "JUNIOR COLLEGES", "SOURCE": "https://nces.ed.gov/collegenavigator/?id=199333", "SOURCEDATE": "2009-12-31T00:00:00Z", "VAL_METHOD": "IMAGERY", "VAL_DATE": "2016-07-07T00:00:00Z", "WEBSITE": "www.pittcc.edu/", "STFIPS": "37", "COFIPS": "147", "SECTOR": "4", "LEVEL_": "1", "HI_OFFER": "40", "DEG_GRANT": "1", "LOCALE": "22", "CLOSE_DATE": "-2", "MERGE_ID": "-2", "ALIAS": "NOT AVAILABLE", "SIZE_SET": "5", "INST_SIZE": "3", "PT_ENROLL": 4657, "FT_ENROLL": 3031, "TOT_ENROLL": 7688, "HOUSING": "2", "DORM_CAP": -999, "TOT_EMP": 1199, "SHELTER_ID": "NOT AVAILABLE" }, "geometry": { "type": "Point", "coordinates": [ -77.407202552999934, 35.550591033000046 ] } },
{ "type": "Feature", "properties": { "OBJECTID": 332, "IPEDSID": "199731", "NAME": "SOUTHWESTERN COMMUNITY COLLEGE", "ADDRESS": "447 COLLEGE DRIVE", "CITY": "SYLVA", "STATE": "NC", "ZIP": "28779", "ZIP4": "NOT AVAILABLE", "TELEPHONE": "(828) 339-4000", "TYPE": "1", "STATUS": "A", "POPULATION": 2831, "COUNTY": "JACKSON", "COUNTYFIPS": "37099", "COUNTRY": "USA", "LATITUDE": 35.348575150000045, "LONGITUDE": -83.207128844999943, "NAICS_CODE": "611210", "NAICS_DESC": "JUNIOR COLLEGES", "SOURCE": "https://nces.ed.gov/collegenavigator/?id=199731", "SOURCEDATE": "2009-12-31T00:00:00Z", "VAL_METHOD": "IMAGERY", "VAL_DATE": "2016-07-07T00:00:00Z", "WEBSITE": "www.southwesterncc.edu/", "STFIPS": "37", "COFIPS": "099", "SECTOR": "4", "LEVEL_": "1", "HI_OFFER": "40", "DEG_GRANT": "1", "LOCALE": "32", "CLOSE_DATE": "-2", "MERGE_ID": "-2", "ALIAS": "NOT AVAILABLE", "SIZE_SET": "6", "INST_SIZE": "2", "PT_ENROLL": 1616, "FT_ENROLL": 643, "TOT_ENROLL": 2259, "HOUSING": "2", "DORM_CAP": -999, "TOT_EMP": 572, "SHELTER_ID": "NOT AVAILABLE" }, "geometry": { "type": "Point", "coordinates": [ -83.207128844999943, 35.348575150000045 ] } },
{ "type": "Feature", "properties": { "OBJECTID": 344, "IPEDSID": "198154", "NAME": "CAPE FEAR COMMUNITY COLLEGE", "ADDRESS": "411 NORTH FRONT STREET", "CITY": "WILMINGTON", "STATE": "NC", "ZIP": "28401", "ZIP4": "3910", "TELEPHONE": "(910) 362-7000", "TYPE": "1", "STATUS": "A", "POPULATION": 10231, "COUNTY": "NEW HANOVER", "COUNTYFIPS": "37129", "COUNTRY": "USA", "LATITUDE": 34.24024324800007, "LONGITUDE": -77.948985163999964, "NAICS_CODE": "611210", "NAICS_DESC": "JUNIOR COLLEGES", "SOURCE": "https://nces.ed.gov/collegenavigator/?id=198154", "SOURCEDATE": "2009-10-13T00:00:00Z", "VAL_METHOD": "IMAGERY", "VAL_DATE": "2016-07-07T00:00:00Z", "WEBSITE": "www.cfcc.edu/", "STFIPS": "37", "COFIPS": "129", "SECTOR": "4", "LEVEL_": "1", "HI_OFFER": "40", "DEG_GRANT": "1", "LOCALE": "12", "CLOSE_DATE": "-2", "MERGE_ID": "-2", "ALIAS": "CFCC", "SIZE_SET": "5", "INST_SIZE": "3", "PT_ENROLL": 5626, "FT_ENROLL": 3054, "TOT_ENROLL": 8680, "HOUSING": "2", "DORM_CAP": -999, "TOT_EMP": 1551, "SHELTER_ID": "NOT AVAILABLE" }, "geometry": { "type": "Point", "coordinates": [ -77.948985163999964, 34.24024324800007 ] } },
{ "type": "Feature", "properties": { "OBJECTID": 345, "IPEDSID": "198233", "NAME": "CATAWBA VALLEY COMMUNITY COLLEGE", "ADDRESS": "2550 HWY 70 SE", "CITY": "HICKORY", "STATE": "NC", "ZIP": "28602", "ZIP4": "0699", "TELEPHONE": "(828) 327-7000", "TYPE": "1", "STATUS": "A", "POPULATION": 5195, "COUNTY": "CATAWBA", "COUNTYFIPS": "37035", "COUNTRY": "USA", "LATITUDE": 35.699731728000074, "LONGITUDE": -81.287920155999984, "NAICS_CODE": "611210", "NAICS_DESC": "JUNIOR COLLEGES", "SOURCE": "https://nces.ed.gov/collegenavigator/?id=198233", "SOURCEDATE": "2009-10-13T00:00:00Z", "VAL_METHOD": "IMAGERY", "VAL_DATE": "2016-07-07T00:00:00Z", "WEBSITE": "www.cvcc.edu/", "STFIPS": "37", "COFIPS": "035", "SECTOR": "4", "LEVEL_": "1", "HI_OFFER": "40", "DEG_GRANT": "1", "LOCALE": "13", "CLOSE_DATE": "-2", "MERGE_ID": "-2", "ALIAS": "CVCC", "SIZE_SET": "2", "INST_SIZE": "2", "PT_ENROLL": 3010, "FT_ENROLL": 1318, "TOT_ENROLL": 4328, "HOUSING": "2", "DORM_CAP": -999, "TOT_EMP": 867, "SHELTER_ID": "NOT AVAILABLE" }, "geometry": { "type": "Point", "coordinates": [ -81.287920155999984, 35.699731728000074 ] } },
{ "type": "Feature", "properties": { "OBJECTID": 370, "IPEDSID": "459064", "NAME": "EMPIRE BEAUTY SCHOOL-PINEVILLE", "ADDRESS": "8700 PINEVILLE-MATTHEWS RD", "CITY": "CHARLOTTE", "STATE": "NC", "ZIP": "28226", "ZIP4": "NOT AVAILABLE", "TELEPHONE": "(800) 920-4593", "TYPE": "3", "STATUS": "A", "POPULATION": 71, "COUNTY": "MECKLENBURG", "COUNTYFIPS": "37119", "COUNTRY": "USA", "LATITUDE": 35.089561186000026, "LONGITUDE": -80.865338191999967, "NAICS_CODE": "611511", "NAICS_DESC": "COSMETOLOGY AND BARBER SCHOOLS", "SOURCE": "https://nces.ed.gov/collegenavigator/?id=459064", "SOURCEDATE": "2013-06-25T00:00:00Z", "VAL_METHOD": "IMAGERY/OTHER", "VAL_DATE": "2016-05-25T00:00:00Z", "WEBSITE": "www.empire.edu/", "STFIPS": "37", "COFIPS": "119", "SECTOR": "9", "LEVEL_": "1", "HI_OFFER": "0", "DEG_GRANT": "2", "LOCALE": "21", "CLOSE_DATE": "-2", "MERGE_ID": "-2", "ALIAS": "NOT AVAILABLE", "SIZE_SET": "-2", "INST_SIZE": "1", "PT_ENROLL": 19, "FT_ENROLL": 45, "TOT_ENROLL": 64, "HOUSING": "2", "DORM_CAP": -999, "TOT_EMP": 7, "SHELTER_ID": "NOT AVAILABLE" }, "geometry": { "type": "Point", "coordinates": [ -80.865338191999967, 35.089561186000026 ] } },
{ "type": "Feature", "properties": { "OBJECTID": 510, "IPEDSID": "461139", "NAME": "JUNG TAO SCHOOL OF CLASSICAL CHINESE MEDICINE", "ADDRESS": "207 DALE ADAMS ROAD", "CITY": "SUGAR GROVE", "STATE": "NC", "ZIP": "28679", "ZIP4": "9657", "TELEPHONE": "(828) 297-4181", "TYPE": "2", "STATUS": "A", "POPULATION": 87, "COUNTY": "WATAUGA", "COUNTYFIPS": "37189", "COUNTRY": "USA", "LATITUDE": 36.263233085000024, "LONGITUDE": -81.785302562999959, "NAICS_CODE": "611310", "NAICS_DESC": "COLLEGES, UNIVERSITIES, AND PROFESSIONAL SCHOOLS", "SOURCE": "https://nces.ed.gov/collegenavigator/?id=461139", "SOURCEDATE": "2013-06-25T00:00:00Z", "VAL_METHOD": "IMAGERY/OTHER", "VAL_DATE": "2016-05-26T00:00:00Z", "WEBSITE": "www.jungtao.edu/", "STFIPS": "37", "COFIPS": "189", "SECTOR": "2", "LEVEL_": "1", "HI_OFFER": "20", "DEG_GRANT": "1", "LOCALE": "42", "CLOSE_DATE": "-2", "MERGE_ID": "-2", "ALIAS": "NOT AVAILABLE", "SIZE_SET": "26", "INST_SIZE": "1", "PT_ENROLL": -999, "FT_ENROLL": 64, "TOT_ENROLL": 64, "HOUSING": "2", "DORM_CAP": -999, "TOT_EMP": 23, "SHELTER_ID": "NOT AVAILABLE" }, "geometry": { "type": "Point", "coordinates": [ -81.785302562999959, 36.263233085000024 ] } },
{ "type": "Feature", "properties": { "OBJECTID": 735, "IPEDSID": "199759", "NAME": "SOUTHEASTERN BAPTIST THEOLOGICAL SEMINARY", "ADDRESS": "120 S. WINGATE STREET", "CITY": "WAKE FOREST", "STATE": "NC", "ZIP": "27587", "ZIP4": "1889", "TELEPHONE": "(919) 761-2100", "TYPE": "2", "STATUS": "A", "POPULATION": 3790, "COUNTY": "WAKE", "COUNTYFIPS": "37183", "COUNTRY": "USA", "LATITUDE": 35.980771054000058, "LONGITUDE": -78.512500394999961, "NAICS_CODE": "611310", "NAICS_DESC": "COLLEGES, UNIVERSITIES, AND PROFESSIONAL SCHOOLS", "SOURCE": "https://nces.ed.gov/collegenavigator/?id=199759", "SOURCEDATE": "2015-08-10T00:00:00Z", "VAL_METHOD": "IMAGERY", "VAL_DATE": "2015-08-26T00:00:00Z", "WEBSITE": "www.sebts.edu/", "STFIPS": "37", "COFIPS": "183", "SECTOR": "2", "LEVEL_": "1", "HI_OFFER": "12", "DEG_GRANT": "1", "LOCALE": "21", "CLOSE_DATE": "-2", "MERGE_ID": "-2", "ALIAS": "SEBTS", "SIZE_SET": "18", "INST_SIZE": "2", "PT_ENROLL": 1738, "FT_ENROLL": 1605, "TOT_ENROLL": 3343, "HOUSING": "1", "DORM_CAP": 849, "TOT_EMP": 447, "SHELTER_ID": "NOT AVAILABLE" }, "geometry": { "type": "Point", "coordinates": [ -78.512500394999961, 35.980771054000058 ] } },
{ "type": "Feature", "properties": { "OBJECTID": 747, "IPEDSID": "198774", "NAME": "JOHNSTON COMMUNITY COLLEGE", "ADDRESS": "245 COLLEGE ROAD", "CITY": "SMITHFIELD", "STATE": "NC", "ZIP": "27577", "ZIP4": "2350", "TELEPHONE": "(919) 934-3051", "TYPE": "1", "STATUS": "A", "POPULATION": 4991, "COUNTY": "JOHNSTON", "COUNTYFIPS": "37101", "COUNTRY": "USA", "LATITUDE": 35.501417740000079, "LONGITUDE": -78.332293448999962, "NAICS_CODE": "611210", "NAICS_DESC": "JUNIOR COLLEGES", "SOURCE": "https://nces.ed.gov/collegenavigator/?id=198774", "SOURCEDATE": "2009-10-13T00:00:00Z", "VAL_METHOD": "IMAGERY/OTHER", "VAL_DATE": "2016-07-07T00:00:00Z", "WEBSITE": "www.johnstoncc.edu/", "STFIPS": "37", "COFIPS": "101", "SECTOR": "4", "LEVEL_": "1", "HI_OFFER": "40", "DEG_GRANT": "1", "LOCALE": "41", "CLOSE_DATE": "-2", "MERGE_ID": "-2", "ALIAS": "NOT AVAILABLE", "SIZE_SET": "7", "INST_SIZE": "2", "PT_ENROLL": 2718, "FT_ENROLL": 1464, "TOT_ENROLL": 4182, "HOUSING": "2", "DORM_CAP": -999, "TOT_EMP": 809, "SHELTER_ID": "NOT AVAILABLE" }, "geometry": { "type": "Point", "coordinates": [ -78.332293448999962, 35.501417740000079 ] } },
{ "type": "Feature", "properties": { "OBJECTID": 748, "IPEDSID": "198251", "NAME": "CENTRAL CAROLINA COMMUNITY COLLEGE", "ADDRESS": "1105 KELLY DR", "CITY": "SANFORD", "STATE": "NC", "ZIP": "27330", "ZIP4": "9840", "TELEPHONE": "(919) 775-5401", "TYPE": "1", "STATUS": "A", "POPULATION": 6013, "COUNTY": "LEE", "COUNTYFIPS": "37105", "COUNTRY": "USA", "LATITUDE": 35.471863734000067, "LONGITUDE": -79.143552902999943, "NAICS_CODE": "611210", "NAICS_DESC": "JUNIOR COLLEGES", "SOURCE": "https://nces.ed.gov/collegenavigator/?id=198251", "SOURCEDATE": "2009-10-13T00:00:00Z", "VAL_METHOD": "IMAGERY/OTHER", "VAL_DATE": "2016-07-07T00:00:00Z", "WEBSITE": "www.cccc.edu/", "STFIPS": "37", "COFIPS": "105", "SECTOR": "4", "LEVEL_": "3", "HI_OFFER": "40", "DEG_GRANT": "1", "LOCALE": "32", "CLOSE_DATE": "-2", "MERGE_ID": "-2", "ALIAS": "NOT AVAILABLE", "SIZE_SET": "5", "INST_SIZE": "3", "PT_ENROLL": 3502, "FT_ENROLL": 1652, "TOT_ENROLL": 5154, "HOUSING": "2", "DORM_CAP": -999, "TOT_EMP": 859, "SHELTER_ID": "NOT AVAILABLE" }, "geometry": { "type": "Point", "coordinates": [ -79.143552902999943, 35.471863734000067 ] } },
{ "type": "Feature", "properties": { "OBJECTID": 752, "IPEDSID": "199740", "NAME": "STANLY COMMUNITY COLLEGE", "ADDRESS": "141 COLLEGE DRIVE", "CITY": "ALBEMARLE", "STATE": "NC", "ZIP": "28001", "ZIP4": "NOT AVAILABLE", "TELEPHONE": "(704) 982-0121", "TYPE": "1", "STATUS": "A", "POPULATION": 2892, "COUNTY": "STANLY", "COUNTYFIPS": "37167", "COUNTRY": "USA", "LATITUDE": 35.339467202000037, "LONGITUDE": -80.236212669999986, "NAICS_CODE": "611210", "NAICS_DESC": "JUNIOR COLLEGES", "SOURCE": "https://nces.ed.gov/collegenavigator/?id=199740", "SOURCEDATE": "2009-10-13T00:00:00Z", "VAL_METHOD": "IMAGERY/OTHER", "VAL_DATE": "2016-07-07T00:00:00Z", "WEBSITE": "www.stanly.edu/", "STFIPS": "37", "COFIPS": "167", "SECTOR": "4", "LEVEL_": "2", "HI_OFFER": "40", "DEG_GRANT": "1", "LOCALE": "32", "CLOSE_DATE": "-2", "MERGE_ID": "-2", "ALIAS": "STANLY TECHNICAL COLLEGE| STANLY TECHNICAL INSTITUTE|STANLEY TECHNICAL COLLEGE| STANLEY COMMUNITY COLLEGE| STANLEY TECHNICAL INSTITUTE| STANLY TECH| STANLEY TECH|", "SIZE_SET": "6", "INST_SIZE": "2", "PT_ENROLL": 1983, "FT_ENROLL": 449, "TOT_ENROLL": 2432, "HOUSING": "2", "DORM_CAP": -999, "TOT_EMP": 460, "SHELTER_ID": "NOT AVAILABLE" }, "geometry": { "type": "Point", "coordinates": [ -80.236212669999986, 35.339467202000037 ] } },
{ "type": "Feature", "properties": { "OBJECTID": 828, "IPEDSID": "482565", "NAME": "DEVRY UNIVERSITY-NORTH CAROLINA", "ADDRESS": "2015 AYRSLEY TOWN BLVD., STE. 109", "CITY": "CHARLOTTE", "STATE": "NC", "ZIP": "28273", "ZIP4": "NOT AVAILABLE", "TELEPHONE": "(704) 697-1020", "TYPE": "3", "STATUS": "A", "POPULATION": 78, "COUNTY": "MECKLENBURG", "COUNTYFIPS": "37119", "COUNTRY": "USA", "LATITUDE": 35.137722465000024, "LONGITUDE": -80.931744722999952, "NAICS_CODE": "611310", "NAICS_DESC": "COLLEGES, UNIVERSITIES, AND PROFESSIONAL SCHOOLS", "SOURCE": "https://nces.ed.gov/collegenavigator/?id=482565", "SOURCEDATE": "2015-08-10T00:00:00Z", "VAL_METHOD": "IMAGERY/OTHER", "VAL_DATE": "2015-09-04T00:00:00Z", "WEBSITE": "https://www.devry.edu/", "STFIPS": "37", "COFIPS": "119", "SECTOR": "3", "LEVEL_": "1", "HI_OFFER": "20", "DEG_GRANT": "1", "LOCALE": "11", "CLOSE_DATE": "-2", "MERGE_ID": "-2", "ALIAS": "DEVRY UNIVERSITY-CHARLOTTE DEVRY UNIVERSITY-RALEIGH", "SIZE_SET": "29", "INST_SIZE": "1", "PT_ENROLL": 27, "FT_ENROLL": 14, "TOT_ENROLL": 41, "HOUSING": "2", "DORM_CAP": -999, "TOT_EMP": 37, "SHELTER_ID": "NOT AVAILABLE" }, "geometry": { "type": "Point", "coordinates": [ -80.931744722999952, 35.137722465000024 ] } },
{ "type": "Feature", "properties": { "OBJECTID": 930, "IPEDSID": "484729", "NAME": "UNIVERSITY OF PHOENIX-NORTH CAROLINA", "ADDRESS": "3800 ARCO CORPORATE DR", "CITY": "CHARLOTTE", "STATE": "NC", "ZIP": "28273", "ZIP4": "NOT AVAILABLE", "TELEPHONE": "(866) 766-0766", "TYPE": "3", "STATUS": "M", "POPULATION": 14, "COUNTY": "MECKLENBURG", "COUNTYFIPS": "37119", "COUNTRY": "USA", "LATITUDE": 35.152357720000055, "LONGITUDE": -80.949345955999945, "NAICS_CODE": "611310", "NAICS_DESC": "COLLEGES, UNIVERSITIES, AND PROFESSIONAL SCHOOLS", "SOURCE": "https://nces.ed.gov/collegenavigator/?id=484729", "SOURCEDATE": "2016-01-21T00:00:00Z", "VAL_METHOD": "IMAGERY/OTHER", "VAL_DATE": "2016-01-22T00:00:00Z", "WEBSITE": "https://www.phoenix.edu/", "STFIPS": "37", "COFIPS": "119", "SECTOR": "3", "LEVEL_": "2", "HI_OFFER": "20", "DEG_GRANT": "1", "LOCALE": "11", "CLOSE_DATE": "07/26/2020", "MERGE_ID": "-2", "ALIAS": "NOT AVAILABLE", "SIZE_SET": "29", "INST_SIZE": "1", "PT_ENROLL": -999, "FT_ENROLL": 14, "TOT_ENROLL": 14, "HOUSING": "2", "DORM_CAP": -999, "TOT_EMP": -999, "SHELTER_ID": "NOT AVAILABLE" }, "geometry": { "type": "Point", "coordinates": [ -80.949345955999945, 35.152357720000055 ] } },
{ "type": "Feature", "properties": { "OBJECTID": 971, "IPEDSID": "198622", "NAME": "GUILFORD TECHNICAL COMMUNITY COLLEGE", "ADDRESS": "601 E. MAIN STREET", "CITY": "JAMESTOWN", "STATE": "NC", "ZIP": "27282", "ZIP4": "NOT AVAILABLE", "TELEPHONE": "(336) 334-4822", "TYPE": "1", "STATUS": "A", "POPULATION": 12017, "COUNTY": "GUILFORD", "COUNTYFIPS": "37081", "COUNTRY": "USA", "LATITUDE": 35.998165013000062, "LONGITUDE": -79.919140876999961, "NAICS_CODE": "611210", "NAICS_DESC": "JUNIOR COLLEGES", "SOURCE": "https://nces.ed.gov/collegenavigator/?id=198622", "SOURCEDATE": "2009-12-10T00:00:00Z", "VAL_METHOD": "IMAGERY/OTHER", "VAL_DATE": "2016-07-07T00:00:00Z", "WEBSITE": "www.gtcc.edu/", "STFIPS": "37", "COFIPS": "081", "SECTOR": "4", "LEVEL_": "2", "HI_OFFER": "40", "DEG_GRANT": "1", "LOCALE": "22", "CLOSE_DATE": "-2", "MERGE_ID": "-2", "ALIAS": "NOT AVAILABLE", "SIZE_SET": "7", "INST_SIZE": "4", "PT_ENROLL": 6675, "FT_ENROLL": 4146, "TOT_ENROLL": 10821, "HOUSING": "2", "DORM_CAP": -999, "TOT_EMP": 1196, "SHELTER_ID": "NOT AVAILABLE" }, "geometry": { "type": "Point", "coordinates": [ -79.919140876999961, 35.998165013000062 ] } },
{ "type": "Feature", "properties": { "OBJECTID": 972, "IPEDSID": "199421", "NAME": "RANDOLPH COMMUNITY COLLEGE", "ADDRESS": "629 INDUSTRIAL PARK AVE", "CITY": "ASHEBORO", "STATE": "NC", "ZIP": "27205", "ZIP4": "NOT AVAILABLE", "TELEPHONE": "(336) 633-0200", "TYPE": "1", "STATUS": "A", "POPULATION": 3129, "COUNTY": "RANDOLPH", "COUNTYFIPS": "37151", "COUNTRY": "USA", "LATITUDE": 35.672796946000062, "LONGITUDE": -79.827879, "NAICS_CODE": "611210", "NAICS_DESC": "JUNIOR COLLEGES", "SOURCE": "https://nces.ed.gov/collegenavigator/?id=199421", "SOURCEDATE": "2009-12-10T00:00:00Z", "VAL_METHOD": "IMAGERY/OTHER", "VAL_DATE": "2016-07-07T00:00:00Z", "WEBSITE": "www.randolph.edu/", "STFIPS": "37", "COFIPS": "151", "SECTOR": "4", "LEVEL_": "1", "HI_OFFER": "40", "DEG_GRANT": "1", "LOCALE": "31", "CLOSE_DATE": "-2", "MERGE_ID": "-2", "ALIAS": "NOT AVAILABLE", "SIZE_SET": "4", "INST_SIZE": "2", "PT_ENROLL": 1856, "FT_ENROLL": 692, "TOT_ENROLL": 2548, "HOUSING": "2", "DORM_CAP": -999, "TOT_EMP": 581, "SHELTER_ID": "NOT AVAILABLE" }, "geometry": { "type": "Point", "coordinates": [ -79.827879, 35.672796946000062 ] } },
{ "type": "Feature", "properties": { "OBJECTID": 1060, "IPEDSID": "199883", "NAME": "WATTS SCHOOL OF NURSING", "ADDRESS": "2828 CROADSAILE DRIVE SUITE 200", "CITY": "DURHAM", "STATE": "NC", "ZIP": "27705", "ZIP4": "2505", "TELEPHONE": "(919) 470-7348", "TYPE": "2", "STATUS": "A", "POPULATION": 170, "COUNTY": "DURHAM", "COUNTYFIPS": "37063", "COUNTRY": "USA", "LATITUDE": 36.027648765000038, "LONGITUDE": -78.941300054999942, "NAICS_CODE": "611519", "NAICS_DESC": "OTHER TECHNICAL AND TRADE SCHOOLS", "SOURCE": "https://nces.ed.gov/collegenavigator/?id=199883", "SOURCEDATE": "2009-10-13T00:00:00Z", "VAL_METHOD": "IMAGERY/OTHER", "VAL_DATE": "2015-10-23T00:00:00Z", "WEBSITE": "www.wattsschoolofnursing.org/", "STFIPS": "37", "COFIPS": "063", "SECTOR": "5", "LEVEL_": "1", "HI_OFFER": "0", "DEG_GRANT": "2", "LOCALE": "11", "CLOSE_DATE": "-2", "MERGE_ID": "-2", "ALIAS": "NOT AVAILABLE", "SIZE_SET": "-2", "INST_SIZE": "1", "PT_ENROLL": -999, "FT_ENROLL": 150, "TOT_ENROLL": 150, "HOUSING": "2", "DORM_CAP": -999, "TOT_EMP": 20, "SHELTER_ID": "NOT AVAILABLE" }, "geometry": { "type": "Point", "coordinates": [ -78.941300054999942, 36.027648765000038 ] } },
{ "type": "Feature", "properties": { "OBJECTID": 1064, "IPEDSID": "199218", "NAME": "UNIVERSITY OF NORTH CAROLINA WILMINGTON", "ADDRESS": "601 SOUTH COLLEGE ROAD", "CITY": "WILMINGTON", "STATE": "NC", "ZIP": "28403", "ZIP4": "5963", "TELEPHONE": "(910) 962-3000", "TYPE": "1", "STATUS": "A", "POPULATION": 20394, "COUNTY": "NEW HANOVER", "COUNTYFIPS": "37129", "COUNTRY": "USA", "LATITUDE": 34.225222622000047, "LONGITUDE": -77.875526762999982, "NAICS_CODE": "611310", "NAICS_DESC": "COLLEGES, UNIVERSITIES, AND PROFESSIONAL SCHOOLS", "SOURCE": "https://nces.ed.gov/collegenavigator/?id=199218", "SOURCEDATE": "2009-10-13T00:00:00Z", "VAL_METHOD": "IMAGERY/OTHER", "VAL_DATE": "2015-11-25T00:00:00Z", "WEBSITE": "www.uncw.edu/", "STFIPS": "37", "COFIPS": "129", "SECTOR": "1", "LEVEL_": "3", "HI_OFFER": "11", "DEG_GRANT": "1", "LOCALE": "12", "CLOSE_DATE": "-2", "MERGE_ID": "-2", "ALIAS": "UNCW|UNIVERSITY OF NORTH CAROLINA AT WILMINGTON|UNC WILMINGTON|UNC W|UNIVERSITY OF NC AT WILMINGTON|UNIV OF NC-WILMINGTON|UNC-W|UNIVERSITY OF NORTH CAROLINA WILMINGTON|", "SIZE_SET": "18", "INST_SIZE": "4", "PT_ENROLL": 4689, "FT_ENROLL": 13226, "TOT_ENROLL": 17915, "HOUSING": "1", "DORM_CAP": 4788, "TOT_EMP": 2479, "SHELTER_ID": "NOT AVAILABLE" }, "geometry": { "type": "Point", "coordinates": [ -77.875526762999982, 34.225222622000047 ] } },
{ "type": "Feature", "properties": { "OBJECTID": 1158, "IPEDSID": "197869", "NAME": "APPALACHIAN STATE UNIVERSITY", "ADDRESS": "287 RIVERS ST", "CITY": "BOONE", "STATE": "NC", "ZIP": "28608", "ZIP4": "NOT AVAILABLE", "TELEPHONE": "(828) 262-2000", "TYPE": "1", "STATUS": "A", "POPULATION": 23259, "COUNTY": "WATAUGA", "COUNTYFIPS": "37189", "COUNTRY": "USA", "LATITUDE": 36.21268249700006, "LONGITUDE": -81.677519602999951, "NAICS_CODE": "611310", "NAICS_DESC": "COLLEGES, UNIVERSITIES, AND PROFESSIONAL SCHOOLS", "SOURCE": "https://nces.ed.gov/collegenavigator/?id=197869", "SOURCEDATE": "2009-12-31T00:00:00Z", "VAL_METHOD": "IMAGERY/OTHER", "VAL_DATE": "2015-11-03T00:00:00Z", "WEBSITE": "www.appstate.edu/", "STFIPS": "37", "COFIPS": "189", "SECTOR": "1", "LEVEL_": "1", "HI_OFFER": "12", "DEG_GRANT": "1", "LOCALE": "32", "CLOSE_DATE": "-2", "MERGE_ID": "-2", "ALIAS": "APPALACHIAN STATE UNIVERSITY", "SIZE_SET": "18", "INST_SIZE": "5", "PT_ENROLL": 2251, "FT_ENROLL": 17772, "TOT_ENROLL": 20023, "HOUSING": "1", "DORM_CAP": 6171, "TOT_EMP": 3236, "SHELTER_ID": "NOT AVAILABLE" }, "geometry": { "type": "Point", "coordinates": [ -81.677519602999951, 36.21268249700006 ] } },
{ "type": "Feature", "properties": { "OBJECTID": 1159, "IPEDSID": "198871", "NAME": "LOUISBURG COLLEGE", "ADDRESS": "501 N. MAIN ST.", "CITY": "LOUISBURG", "STATE": "NC", "ZIP": "27549", "ZIP4": "2399", "TELEPHONE": "(919) 496-2521", "TYPE": "2", "STATUS": "A", "POPULATION": 605, "COUNTY": "FRANKLIN", "COUNTYFIPS": "37069", "COUNTRY": "USA", "LATITUDE": 36.105393457000048, "LONGITUDE": -78.299709227999983, "NAICS_CODE": "611210", "NAICS_DESC": "JUNIOR COLLEGES", "SOURCE": "https://nces.ed.gov/collegenavigator/?id=198871", "SOURCEDATE": "2009-10-13T00:00:00Z", "VAL_METHOD": "IMAGERY", "VAL_DATE": "2016-06-14T00:00:00Z", "WEBSITE": "www.louisburg.edu/", "STFIPS": "37", "COFIPS": "069", "SECTOR": "5", "LEVEL_": "1", "HI_OFFER": "40", "DEG_GRANT": "1", "LOCALE": "31", "CLOSE_DATE": "-2", "MERGE_ID": "-2", "ALIAS": "NOT AVAILABLE", "SIZE_SET": "1", "INST_SIZE": "1", "PT_ENROLL": 9, "FT_ENROLL": 481, "TOT_ENROLL": 490, "HOUSING": "1", "DORM_CAP": 722, "TOT_EMP": 115, "SHELTER_ID": "NOT AVAILABLE" }, "geometry": { "type": "Point", "coordinates": [ -78.299709227999983, 36.105393457000048 ] } },
{ "type": "Feature", "properties": { "OBJECTID": 1327, "IPEDSID": "198677", "NAME": "HERITAGE BIBLE COLLEGE", "ADDRESS": "494 ANTIOCH CHURCH ROAD", "CITY": "DUNN", "STATE": "NC", "ZIP": "28334", "ZIP4": "NOT AVAILABLE", "TELEPHONE": "(910) 892-3178", "TYPE": "2", "STATUS": "A", "POPULATION": 61, "COUNTY": "HARNETT", "COUNTYFIPS": "37085", "COUNTRY": "USA", "LATITUDE": 35.268278438000038, "LONGITUDE": -78.612676852999982, "NAICS_CODE": "611310", "NAICS_DESC": "COLLEGES, UNIVERSITIES, AND PROFESSIONAL SCHOOLS", "SOURCE": "https://nces.ed.gov/collegenavigator/?id=198677", "SOURCEDATE": "2009-10-13T00:00:00Z", "VAL_METHOD": "IMAGERY/OTHER", "VAL_DATE": "2016-06-14T00:00:00Z", "WEBSITE": "www.heritagebiblecollege.edu/", "STFIPS": "37", "COFIPS": "085", "SECTOR": "2", "LEVEL_": "3", "HI_OFFER": "30", "DEG_GRANT": "1", "LOCALE": "41", "CLOSE_DATE": "-2", "MERGE_ID": "-2", "ALIAS": "NOT AVAILABLE", "SIZE_SET": "24", "INST_SIZE": "1", "PT_ENROLL": 11, "FT_ENROLL": 32, "TOT_ENROLL": 43, "HOUSING": "2", "DORM_CAP": -999, "TOT_EMP": 18, "SHELTER_ID": "NOT AVAILABLE" }, "geometry": { "type": "Point", "coordinates": [ -78.612676852999982, 35.268278438000038 ] } },
{ "type": "Feature", "properties": { "OBJECTID": 1328, "IPEDSID": "198844", "NAME": "LEONS BEAUTY SCHOOL INC", "ADDRESS": "1305 COLISEUM BLVD", "CITY": "GREENSBORO", "STATE": "NC", "ZIP": "27403", "ZIP4": "2604", "TELEPHONE": "(336) 274-4601 EXT 13", "TYPE": "3", "STATUS": "A", "POPULATION": 152, "COUNTY": "GUILFORD", "COUNTYFIPS": "37081", "COUNTRY": "USA", "LATITUDE": 36.057646110000064, "LONGITUDE": -79.822799958999951, "NAICS_CODE": "611511", "NAICS_DESC": "COSMETOLOGY AND BARBER SCHOOLS", "SOURCE": "https://nces.ed.gov/collegenavigator/?id=198844", "SOURCEDATE": "2009-10-13T00:00:00Z", "VAL_METHOD": "IMAGERY/OTHER", "VAL_DATE": "2016-06-14T00:00:00Z", "WEBSITE": "www.leonsbeauty.com/", "STFIPS": "37", "COFIPS": "081", "SECTOR": "9", "LEVEL_": "3", "HI_OFFER": "0", "DEG_GRANT": "2", "LOCALE": "11", "CLOSE_DATE": "-2", "MERGE_ID": "-2", "ALIAS": "NOT AVAILABLE", "SIZE_SET": "-2", "INST_SIZE": "1", "PT_ENROLL": 2, "FT_ENROLL": 133, "TOT_ENROLL": 135, "HOUSING": "2", "DORM_CAP": -999, "TOT_EMP": 17, "SHELTER_ID": "NOT AVAILABLE" }, "geometry": { "type": "Point", "coordinates": [ -79.822799958999951, 36.057646110000064 ] } },
{ "type": "Feature", "properties": { "OBJECTID": 1329, "IPEDSID": "199023", "NAME": "MONTGOMERY COMMUNITY COLLEGE", "ADDRESS": "1011 PAGE ST", "CITY": "TROY", "STATE": "NC", "ZIP": "27371", "ZIP4": "NOT AVAILABLE", "TELEPHONE": "(910) 898-9600", "TYPE": "1", "STATUS": "A", "POPULATION": 908, "COUNTY": "MONTGOMERY", "COUNTYFIPS": "37123", "COUNTRY": "USA", "LATITUDE": 35.367106772000056, "LONGITUDE": -79.870004918999939, "NAICS_CODE": "611210", "NAICS_DESC": "JUNIOR COLLEGES", "SOURCE": "https://nces.ed.gov/collegenavigator/?id=199023", "SOURCEDATE": "2009-10-13T00:00:00Z", "VAL_METHOD": "IMAGERY", "VAL_DATE": "2016-06-14T00:00:00Z", "WEBSITE": "www.montgomery.edu/", "STFIPS": "37", "COFIPS": "123", "SECTOR": "4", "LEVEL_": "3", "HI_OFFER": "40", "DEG_GRANT": "1", "LOCALE": "41", "CLOSE_DATE": "-2", "MERGE_ID": "-2", "ALIAS": "NOT AVAILABLE", "SIZE_SET": "8", "INST_SIZE": "1", "PT_ENROLL": 416, "FT_ENROLL": 263, "TOT_ENROLL": 679, "HOUSING": "2", "DORM_CAP": -999, "TOT_EMP": 229, "SHELTER_ID": "NOT AVAILABLE" }, "geometry": { "type": "Point", "coordinates": [ -79.870004918999939, 35.367106772000056 ] } },
{ "type": "Feature", "properties": { "OBJECTID": 1330, "IPEDSID": "199306", "NAME": "PFEIFFER UNIVERSITY", "ADDRESS": "48380 US HWY 52N", "CITY": "MISENHEIMER", "STATE": "NC", "ZIP": "28109", "ZIP4": "0960", "TELEPHONE": "(704) 463-1360", "TYPE": "2", "STATUS": "A", "POPULATION": 1411, "COUNTY": "STANLY", "COUNTYFIPS": "37167", "COUNTRY": "USA", "LATITUDE": 35.484696, "LONGITUDE": -80.283168, "NAICS_CODE": "611310", "NAICS_DESC": "COLLEGES, UNIVERSITIES, AND PROFESSIONAL SCHOOLS", "SOURCE": "https://nces.ed.gov/collegenavigator/?id=199306", "SOURCEDATE": "2009-12-31T00:00:00Z", "VAL_METHOD": "IMAGERY", "VAL_DATE": "2016-06-03T00:00:00Z", "WEBSITE": "www.pfeiffer.edu/", "STFIPS": "37", "COFIPS": "167", "SECTOR": "2", "LEVEL_": "1", "HI_OFFER": "20", "DEG_GRANT": "1", "LOCALE": "42", "CLOSE_DATE": "-2", "MERGE_ID": "-2", "ALIAS": "NOT AVAILABLE", "SIZE_SET": "18", "INST_SIZE": "2", "PT_ENROLL": 301, "FT_ENROLL": 884, "TOT_ENROLL": 1185, "HOUSING": "1", "DORM_CAP": 728, "TOT_EMP": 226, "SHELTER_ID": "NOT AVAILABLE" }, "geometry": { "type": "Point", "coordinates": [ -80.283168, 35.484696 ] } },
{ "type": "Feature", "properties": { "OBJECTID": 1331, "IPEDSID": "199449", "NAME": "RICHMOND COMMUNITY COLLEGE", "ADDRESS": "1042 W HAMLET AVE", "CITY": "HAMLET", "STATE": "NC", "ZIP": "28345", "ZIP4": "1189", "TELEPHONE": "(910) 410-1700", "TYPE": "1", "STATUS": "A", "POPULATION": 2569, "COUNTY": "RICHMOND", "COUNTYFIPS": "37153", "COUNTRY": "USA", "LATITUDE": 34.903181606000032, "LONGITUDE": -79.710163655999963, "NAICS_CODE": "611210", "NAICS_DESC": "JUNIOR COLLEGES", "SOURCE": "https://nces.ed.gov/collegenavigator/?id=199449", "SOURCEDATE": "2009-10-13T00:00:00Z", "VAL_METHOD": "IMAGERY/OTHER", "VAL_DATE": "2016-06-14T00:00:00Z", "WEBSITE": "www.richmondcc.edu/", "STFIPS": "37", "COFIPS": "153", "SECTOR": "4", "LEVEL_": "3", "HI_OFFER": "40", "DEG_GRANT": "1", "LOCALE": "32", "CLOSE_DATE": "-2", "MERGE_ID": "-2", "ALIAS": "NOT AVAILABLE", "SIZE_SET": "4", "INST_SIZE": "2", "PT_ENROLL": 1437, "FT_ENROLL": 789, "TOT_ENROLL": 2226, "HOUSING": "2", "DORM_CAP": -999, "TOT_EMP": 343, "SHELTER_ID": "NOT AVAILABLE" }, "geometry": { "type": "Point", "coordinates": [ -79.710163655999963, 34.903181606000032 ] } },
{ "type": "Feature", "properties": { "OBJECTID": 1333, "IPEDSID": "199494", "NAME": "ROWAN-CABARRUS COMMUNITY COLLEGE", "ADDRESS": "1333 JAKE ALEXANDER BLVD, SOUTH", "CITY": "SALISBURY", "STATE": "NC", "ZIP": "28146", "ZIP4": "NOT AVAILABLE", "TELEPHONE": "(704) 216-7222", "TYPE": "1", "STATUS": "A", "POPULATION": 8053, "COUNTY": "ROWAN", "COUNTYFIPS": "37159", "COUNTRY": "USA", "LATITUDE": 35.639388, "LONGITUDE": -80.48181, "NAICS_CODE": "611210", "NAICS_DESC": "JUNIOR COLLEGES", "SOURCE": "https://nces.ed.gov/collegenavigator/?id=199494", "SOURCEDATE": "2009-12-31T00:00:00Z", "VAL_METHOD": "IMAGERY", "VAL_DATE": "2016-06-03T00:00:00Z", "WEBSITE": "https://www.rccc.edu/", "STFIPS": "37", "COFIPS": "159", "SECTOR": "4", "LEVEL_": "1", "HI_OFFER": "40", "DEG_GRANT": "1", "LOCALE": "22", "CLOSE_DATE": "-2", "MERGE_ID": "-2", "ALIAS": "NOT AVAILABLE", "SIZE_SET": "8", "INST_SIZE": "3", "PT_ENROLL": 4966, "FT_ENROLL": 2143, "TOT_ENROLL": 7109, "HOUSING": "2", "DORM_CAP": -999, "TOT_EMP": 944, "SHELTER_ID": "NOT AVAILABLE" }, "geometry": { "type": "Point", "coordinates": [ -80.48181, 35.639388 ] } },
{ "type": "Feature", "properties": { "OBJECTID": 1334, "IPEDSID": "199625", "NAME": "SAMPSON COMMUNITY COLLEGE", "ADDRESS": "HIGHWAY 24 WEST", "CITY": "CLINTON", "STATE": "NC", "ZIP": "28328", "ZIP4": "0318", "TELEPHONE": "(910) 592-8081 EXT 2017", "TYPE": "1", "STATUS": "A", "POPULATION": 1797, "COUNTY": "SAMPSON", "COUNTYFIPS": "37163", "COUNTRY": "USA", "LATITUDE": 34.99086, "LONGITUDE": -78.361136, "NAICS_CODE": "611210", "NAICS_DESC": "JUNIOR COLLEGES", "SOURCE": "https://nces.ed.gov/collegenavigator/?id=199625", "SOURCEDATE": "2009-12-31T00:00:00Z", "VAL_METHOD": "IMAGERY", "VAL_DATE": "2016-06-03T00:00:00Z", "WEBSITE": "www.sampsoncc.edu/", "STFIPS": "37", "COFIPS": "163", "SECTOR": "4", "LEVEL_": "1", "HI_OFFER": "40", "DEG_GRANT": "1", "LOCALE": "32", "CLOSE_DATE": "-2", "MERGE_ID": "-2", "ALIAS": "NOT AVAILABLE", "SIZE_SET": "4", "INST_SIZE": "2", "PT_ENROLL": 1073, "FT_ENROLL": 419, "TOT_ENROLL": 1492, "HOUSING": "2", "DORM_CAP": -999, "TOT_EMP": 305, "SHELTER_ID": "NOT AVAILABLE" }, "geometry": { "type": "Point", "coordinates": [ -78.361136, 34.99086 ] } },
{ "type": "Feature", "properties": { "OBJECTID": 1335, "IPEDSID": "199634", "NAME": "SANDHILLS COMMUNITY COLLEGE", "ADDRESS": "3395 AIRPORT RD", "CITY": "PINEHURST", "STATE": "NC", "ZIP": "28374", "ZIP4": "NOT AVAILABLE", "TELEPHONE": "(910) 692-6185", "TYPE": "1", "STATUS": "A", "POPULATION": 4700, "COUNTY": "MOORE", "COUNTYFIPS": "37125", "COUNTRY": "USA", "LATITUDE": 35.221144878000075, "LONGITUDE": -79.407791047999979, "NAICS_CODE": "611210", "NAICS_DESC": "JUNIOR COLLEGES", "SOURCE": "https://nces.ed.gov/collegenavigator/?id=199634", "SOURCEDATE": "2009-10-13T00:00:00Z", "VAL_METHOD": "IMAGERY", "VAL_DATE": "2016-06-14T00:00:00Z", "WEBSITE": "www.sandhills.edu/", "STFIPS": "37", "COFIPS": "125", "SECTOR": "4", "LEVEL_": "3", "HI_OFFER": "40", "DEG_GRANT": "1", "LOCALE": "41", "CLOSE_DATE": "-2", "MERGE_ID": "-2", "ALIAS": "SCC|SANDHILLS", "SIZE_SET": "5", "INST_SIZE": "2", "PT_ENROLL": 2842, "FT_ENROLL": 1148, "TOT_ENROLL": 3990, "HOUSING": "2", "DORM_CAP": -999, "TOT_EMP": 710, "SHELTER_ID": "NOT AVAILABLE" }, "geometry": { "type": "Point", "coordinates": [ -79.407791047999979, 35.221144878000075 ] } },
{ "type": "Feature", "properties": { "OBJECTID": 1336, "IPEDSID": "199689", "NAME": "PAUL MITCHELL THE SCHOOL-FAYETTEVILLE", "ADDRESS": "505A CROSS CREEK MALL", "CITY": "FAYETTEVILLE", "STATE": "NC", "ZIP": "28303", "ZIP4": "5364", "TELEPHONE": "(910) 485-6310", "TYPE": "3", "STATUS": "A", "POPULATION": 188, "COUNTY": "CUMBERLAND", "COUNTYFIPS": "37051", "COUNTRY": "USA", "LATITUDE": 35.069985, "LONGITUDE": -78.957561, "NAICS_CODE": "611511", "NAICS_DESC": "COSMETOLOGY AND BARBER SCHOOLS", "SOURCE": "https://nces.ed.gov/collegenavigator/?id=199689", "SOURCEDATE": "2009-10-13T00:00:00Z", "VAL_METHOD": "IMAGERY/OTHER", "VAL_DATE": "2019-03-19T00:00:00Z", "WEBSITE": "paulmitchell.edu/fayetteville", "STFIPS": "37", "COFIPS": "051", "SECTOR": "9", "LEVEL_": "3", "HI_OFFER": "0", "DEG_GRANT": "2", "LOCALE": "12", "CLOSE_DATE": "-2", "MERGE_ID": "-2", "ALIAS": "NOT AVAILABLE", "SIZE_SET": "-2", "INST_SIZE": "1", "PT_ENROLL": 26, "FT_ENROLL": 142, "TOT_ENROLL": 168, "HOUSING": "2", "DORM_CAP": -999, "TOT_EMP": 20, "SHELTER_ID": "NOT AVAILABLE" }, "geometry": { "type": "Point", "coordinates": [ -78.957561, 35.069985 ] } },
{ "type": "Feature", "properties": { "OBJECTID": 1393, "IPEDSID": "199865", "NAME": "WARREN WILSON COLLEGE", "ADDRESS": "701 WARREN WILSON RD", "CITY": "SWANNANOA", "STATE": "NC", "ZIP": "28778", "ZIP4": "2099", "TELEPHONE": "(828) 771-2000", "TYPE": "2", "STATUS": "A", "POPULATION": 936, "COUNTY": "BUNCOMBE", "COUNTYFIPS": "37021", "COUNTRY": "USA", "LATITUDE": 35.611761993000073, "LONGITUDE": -82.441097268999954, "NAICS_CODE": "611310", "NAICS_DESC": "COLLEGES, UNIVERSITIES, AND PROFESSIONAL SCHOOLS", "SOURCE": "https://nces.ed.gov/collegenavigator/?id=199865", "SOURCEDATE": "2009-10-13T00:00:00Z", "VAL_METHOD": "IMAGERY/OTHER", "VAL_DATE": "2015-10-23T00:00:00Z", "WEBSITE": "https://www.warren-wilson.edu/", "STFIPS": "37", "COFIPS": "021", "SECTOR": "2", "LEVEL_": "2", "HI_OFFER": "20", "DEG_GRANT": "1", "LOCALE": "21", "CLOSE_DATE": "-2", "MERGE_ID": "-2", "ALIAS": "WARREN WILSON, WWC", "SIZE_SET": "21", "INST_SIZE": "1", "PT_ENROLL": 15, "FT_ENROLL": 688, "TOT_ENROLL": 703, "HOUSING": "1", "DORM_CAP": 828, "TOT_EMP": 233, "SHELTER_ID": "NOT AVAILABLE" }, "geometry": { "type": "Point", "coordinates": [ -82.441097268999954, 35.611761993000073 ] } },
{ "type": "Feature", "properties": { "OBJECTID": 1401, "IPEDSID": "199892", "NAME": "WAYNE COMMUNITY COLLEGE", "ADDRESS": "3000 WAYNE MEMORIAL DR", "CITY": "GOLDSBORO", "STATE": "NC", "ZIP": "27534", "ZIP4": "8002", "TELEPHONE": "(919) 735-5151", "TYPE": "1", "STATUS": "A", "POPULATION": 3371, "COUNTY": "WAYNE", "COUNTYFIPS": "37191", "COUNTRY": "USA", "LATITUDE": 35.403564445000029, "LONGITUDE": -77.945286338999949, "NAICS_CODE": "611210", "NAICS_DESC": "JUNIOR COLLEGES", "SOURCE": "https://nces.ed.gov/collegenavigator/?id=199892", "SOURCEDATE": "2009-10-13T00:00:00Z", "VAL_METHOD": "IMAGERY", "VAL_DATE": "2015-10-23T00:00:00Z", "WEBSITE": "www.waynecc.edu/", "STFIPS": "37", "COFIPS": "191", "SECTOR": "4", "LEVEL_": "1", "HI_OFFER": "40", "DEG_GRANT": "1", "LOCALE": "13", "CLOSE_DATE": "-2", "MERGE_ID": "-2", "ALIAS": "NOT AVAILABLE", "SIZE_SET": "5", "INST_SIZE": "2", "PT_ENROLL": 1724, "FT_ENROLL": 977, "TOT_ENROLL": 2701, "HOUSING": "2", "DORM_CAP": -999, "TOT_EMP": 670, "SHELTER_ID": "NOT AVAILABLE" }, "geometry": { "type": "Point", "coordinates": [ -77.945286338999949, 35.403564445000029 ] } },
{ "type": "Feature", "properties": { "OBJECTID": 1402, "IPEDSID": "199953", "NAME": "WILSON COMMUNITY COLLEGE", "ADDRESS": "902 HERRING AVE", "CITY": "WILSON", "STATE": "NC", "ZIP": "27893", "ZIP4": "3310", "TELEPHONE": "(252) 291-1195", "TYPE": "1", "STATUS": "A", "POPULATION": 2162, "COUNTY": "WILSON", "COUNTYFIPS": "37195", "COUNTRY": "USA", "LATITUDE": 35.730114051000044, "LONGITUDE": -77.895662647999984, "NAICS_CODE": "611210", "NAICS_DESC": "JUNIOR COLLEGES", "SOURCE": "https://nces.ed.gov/collegenavigator/?id=199953", "SOURCEDATE": "2009-10-13T00:00:00Z", "VAL_METHOD": "IMAGERY/OTHER", "VAL_DATE": "2015-10-15T00:00:00Z", "WEBSITE": "www.wilsoncc.edu/", "STFIPS": "37", "COFIPS": "195", "SECTOR": "4", "LEVEL_": "3", "HI_OFFER": "40", "DEG_GRANT": "1", "LOCALE": "31", "CLOSE_DATE": "-2", "MERGE_ID": "-2", "ALIAS": "WCC", "SIZE_SET": "6", "INST_SIZE": "2", "PT_ENROLL": 1449, "FT_ENROLL": 413, "TOT_ENROLL": 1862, "HOUSING": "2", "DORM_CAP": -999, "TOT_EMP": 300, "SHELTER_ID": "NOT AVAILABLE" }, "geometry": { "type": "Point", "coordinates": [ -77.895662647999984, 35.730114051000044 ] } },
{ "type": "Feature", "properties": { "OBJECTID": 1502, "IPEDSID": "408163", "NAME": "PINNACLE INSTITUTE OF COSMETOLOGY", "ADDRESS": "461-C EAST PLAZA DRIVE", "CITY": "MOORESVILLE", "STATE": "NC", "ZIP": "28115", "ZIP4": "NOT AVAILABLE", "TELEPHONE": "(704) 235-0185", "TYPE": "3", "STATUS": "A", "POPULATION": 73, "COUNTY": "IREDELL", "COUNTYFIPS": "37097", "COUNTRY": "USA", "LATITUDE": 35.596893828000077, "LONGITUDE": -80.816426446999969, "NAICS_CODE": "611511", "NAICS_DESC": "COSMETOLOGY AND BARBER SCHOOLS", "SOURCE": "https://nces.ed.gov/collegenavigator/?id=408163", "SOURCEDATE": "2009-10-13T00:00:00Z", "VAL_METHOD": "GEOCODE", "VAL_DATE": "2016-06-16T00:00:00Z", "WEBSITE": "pinnacleinstitute.edu/", "STFIPS": "37", "COFIPS": "097", "SECTOR": "9", "LEVEL_": "1", "HI_OFFER": "0", "DEG_GRANT": "2", "LOCALE": "21", "CLOSE_DATE": "-2", "MERGE_ID": "-2", "ALIAS": "NOT AVAILABLE", "SIZE_SET": "-2", "INST_SIZE": "1", "PT_ENROLL": -999, "FT_ENROLL": 56, "TOT_ENROLL": 56, "HOUSING": "2", "DORM_CAP": -999, "TOT_EMP": 17, "SHELTER_ID": "NOT AVAILABLE" }, "geometry": { "type": "Point", "coordinates": [ -80.816426446999969, 35.596893828000077 ] } },
{ "type": "Feature", "properties": { "OBJECTID": 1542, "IPEDSID": "433174", "NAME": "CAROLINAS COLLEGE OF HEALTH SCIENCES", "ADDRESS": "2110 WATER RIDGE PARKWAY", "CITY": "CHARLOTTE", "STATE": "NC", "ZIP": "28217", "ZIP4": "NOT AVAILABLE", "TELEPHONE": "(704) 355-5043", "TYPE": "1", "STATUS": "A", "POPULATION": 588, "COUNTY": "MECKLENBURG", "COUNTYFIPS": "37119", "COUNTRY": "USA", "LATITUDE": 35.200295474000029, "LONGITUDE": -80.838535389999947, "NAICS_CODE": "611210", "NAICS_DESC": "JUNIOR COLLEGES", "SOURCE": "https://nces.ed.gov/collegenavigator/?id=433174", "SOURCEDATE": "2009-10-13T00:00:00Z", "VAL_METHOD": "IMAGERY/OTHER", "VAL_DATE": "2019-03-19T00:00:00Z", "WEBSITE": "www.carolinascollege.edu/", "STFIPS": "37", "COFIPS": "119", "SECTOR": "1", "LEVEL_": "1", "HI_OFFER": "30", "DEG_GRANT": "1", "LOCALE": "11", "CLOSE_DATE": "-2", "MERGE_ID": "-2", "ALIAS": "NOT AVAILABLE", "SIZE_SET": "10", "INST_SIZE": "1", "PT_ENROLL": 420, "FT_ENROLL": 94, "TOT_ENROLL": 514, "HOUSING": "2", "DORM_CAP": -999, "TOT_EMP": 74, "SHELTER_ID": "NOT AVAILABLE" }, "geometry": { "type": "Point", "coordinates": [ -80.838535389999947, 35.200295474000029 ] } },
{ "type": "Feature", "properties": { "OBJECTID": 1562, "IPEDSID": "442611", "NAME": "NASCAR TECHNICAL INSTITUTE", "ADDRESS": "220 BYERS CREEK ROAD", "CITY": "MOORESVILLE", "STATE": "NC", "ZIP": "28117", "ZIP4": "NOT AVAILABLE", "TELEPHONE": "(877) 201-2597", "TYPE": "3", "STATUS": "A", "POPULATION": 1271, "COUNTY": "IREDELL", "COUNTYFIPS": "37097", "COUNTRY": "USA", "LATITUDE": 35.605305266000073, "LONGITUDE": -80.855128289999982, "NAICS_CODE": "611519", "NAICS_DESC": "OTHER TECHNICAL AND TRADE SCHOOLS", "SOURCE": "https://nces.ed.gov/collegenavigator/?id=442611", "SOURCEDATE": "2009-10-13T00:00:00Z", "VAL_METHOD": "GEOCODE", "VAL_DATE": "2016-06-20T00:00:00Z", "WEBSITE": "www.uti.edu/", "STFIPS": "37", "COFIPS": "097", "SECTOR": "6", "LEVEL_": "1", "HI_OFFER": "0", "DEG_GRANT": "2", "LOCALE": "21", "CLOSE_DATE": "-2", "MERGE_ID": "-2", "ALIAS": "UNIVERSAL TECHNICAL INSTITUTE OF MORRESVILLE", "SIZE_SET": "-2", "INST_SIZE": "2", "PT_ENROLL": -999, "FT_ENROLL": 1204, "TOT_ENROLL": 1204, "HOUSING": "2", "DORM_CAP": -999, "TOT_EMP": 67, "SHELTER_ID": "NOT AVAILABLE" }, "geometry": { "type": "Point", "coordinates": [ -80.855128289999982, 35.605305266000073 ] } },
{ "type": "Feature", "properties": { "OBJECTID": 1564, "IPEDSID": "443076", "NAME": "HOOD THEOLOGICAL SEMINARY", "ADDRESS": "1810 LUTHERAN SYNOD DRIVE", "CITY": "SALISBURY", "STATE": "NC", "ZIP": "28144", "ZIP4": "NOT AVAILABLE", "TELEPHONE": "(704) 636-7611", "TYPE": "2", "STATUS": "A", "POPULATION": 186, "COUNTY": "ROWAN", "COUNTYFIPS": "37159", "COUNTRY": "USA", "LATITUDE": 35.644603177000079, "LONGITUDE": -80.480643388999965, "NAICS_CODE": "611310", "NAICS_DESC": "COLLEGES, UNIVERSITIES, AND PROFESSIONAL SCHOOLS", "SOURCE": "https://nces.ed.gov/collegenavigator/?id=443076", "SOURCEDATE": "2009-10-13T00:00:00Z", "VAL_METHOD": "IMAGERY", "VAL_DATE": "2016-06-20T00:00:00Z", "WEBSITE": "www.hoodseminary.edu/", "STFIPS": "37", "COFIPS": "159", "SECTOR": "2", "LEVEL_": "2", "HI_OFFER": "14", "DEG_GRANT": "1", "LOCALE": "22", "CLOSE_DATE": "-2", "MERGE_ID": "-2", "ALIAS": "NOT AVAILABLE", "SIZE_SET": "24", "INST_SIZE": "1", "PT_ENROLL": 48, "FT_ENROLL": 94, "TOT_ENROLL": 142, "HOUSING": "1", "DORM_CAP": 125, "TOT_EMP": 44, "SHELTER_ID": "NOT AVAILABLE" }, "geometry": { "type": "Point", "coordinates": [ -80.480643388999965, 35.644603177000079 ] } },
{ "type": "Feature", "properties": { "OBJECTID": 1620, "IPEDSID": "199722", "NAME": "SOUTHEASTERN COMMUNITY COLLEGE", "ADDRESS": "4564 CHADBOURN HWY", "CITY": "WHITEVILLE", "STATE": "NC", "ZIP": "28472", "ZIP4": "5422", "TELEPHONE": "(910) 642-7141 EXT 224", "TYPE": "1", "STATUS": "A", "POPULATION": 1693, "COUNTY": "COLUMBUS", "COUNTYFIPS": "37047", "COUNTRY": "USA", "LATITUDE": 34.331748685000036, "LONGITUDE": -78.783364957999936, "NAICS_CODE": "611210", "NAICS_DESC": "JUNIOR COLLEGES", "SOURCE": "https://nces.ed.gov/collegenavigator/?id=199722", "SOURCEDATE": "2009-10-13T00:00:00Z", "VAL_METHOD": "IMAGERY/OTHER", "VAL_DATE": "2016-06-29T00:00:00Z", "WEBSITE": "www.sccnc.edu/", "STFIPS": "37", "COFIPS": "047", "SECTOR": "4", "LEVEL_": "3", "HI_OFFER": "40", "DEG_GRANT": "1", "LOCALE": "42", "CLOSE_DATE": "-2", "MERGE_ID": "-2", "ALIAS": "NOT AVAILABLE", "SIZE_SET": "9", "INST_SIZE": "2", "PT_ENROLL": 824, "FT_ENROLL": 447, "TOT_ENROLL": 1271, "HOUSING": "2", "DORM_CAP": -999, "TOT_EMP": 422, "SHELTER_ID": "NOT AVAILABLE" }, "geometry": { "type": "Point", "coordinates": [ -78.783364957999936, 34.331748685000036 ] } },
{ "type": "Feature", "properties": { "OBJECTID": 1622, "IPEDSID": "198668", "NAME": "HAYWOOD COMMUNITY COLLEGE", "ADDRESS": "185 FREEDLANDER DRIVE", "CITY": "CLYDE", "STATE": "NC", "ZIP": "28721", "ZIP4": "9901", "TELEPHONE": "(828) 627-2821", "TYPE": "1", "STATUS": "A", "POPULATION": 1818, "COUNTY": "HAYWOOD", "COUNTYFIPS": "37087", "COUNTRY": "USA", "LATITUDE": 35.525905459000057, "LONGITUDE": -82.927918012999953, "NAICS_CODE": "611210", "NAICS_DESC": "JUNIOR COLLEGES", "SOURCE": "https://nces.ed.gov/collegenavigator/?id=198668", "SOURCEDATE": "2009-10-13T00:00:00Z", "VAL_METHOD": "IMAGERY", "VAL_DATE": "2016-06-29T00:00:00Z", "WEBSITE": "https://www.haywood.edu/", "STFIPS": "37", "COFIPS": "087", "SECTOR": "4", "LEVEL_": "3", "HI_OFFER": "40", "DEG_GRANT": "1", "LOCALE": "21", "CLOSE_DATE": "-2", "MERGE_ID": "-2", "ALIAS": "NOT AVAILABLE", "SIZE_SET": "4", "INST_SIZE": "2", "PT_ENROLL": 897, "FT_ENROLL": 543, "TOT_ENROLL": 1440, "HOUSING": "2", "DORM_CAP": -999, "TOT_EMP": 378, "SHELTER_ID": "NOT AVAILABLE" }, "geometry": { "type": "Point", "coordinates": [ -82.927918012999953, 35.525905459000057 ] } },
{ "type": "Feature", "properties": { "OBJECTID": 1623, "IPEDSID": "421832", "NAME": "LIVING ARTS COLLEGE", "ADDRESS": "3000 WAKEFIELD CROSSING DRIVE", "CITY": "RALEIGH", "STATE": "NC", "ZIP": "27614", "ZIP4": "7076", "TELEPHONE": "(919) 488-8500", "TYPE": "3", "STATUS": "A", "POPULATION": 219, "COUNTY": "WAKE", "COUNTYFIPS": "37183", "COUNTRY": "USA", "LATITUDE": 35.942891627000051, "LONGITUDE": -78.555725858999949, "NAICS_CODE": "611210", "NAICS_DESC": "JUNIOR COLLEGES", "SOURCE": "https://nces.ed.gov/collegenavigator/?id=421832", "SOURCEDATE": "2009-10-13T00:00:00Z", "VAL_METHOD": "IMAGERY/OTHER", "VAL_DATE": "2016-06-29T00:00:00Z", "WEBSITE": "living-arts-college.edu/", "STFIPS": "37", "COFIPS": "183", "SECTOR": "3", "LEVEL_": "3", "HI_OFFER": "30", "DEG_GRANT": "1", "LOCALE": "11", "CLOSE_DATE": "-2", "MERGE_ID": "-2", "ALIAS": "LIVING ARTS COLLEGE @ SCHOOL OF COMMUNICATION ARTS", "SIZE_SET": "22", "INST_SIZE": "1", "PT_ENROLL": 22, "FT_ENROLL": 149, "TOT_ENROLL": 171, "HOUSING": "1", "DORM_CAP": 72, "TOT_EMP": 48, "SHELTER_ID": "NOT AVAILABLE" }, "geometry": { "type": "Point", "coordinates": [ -78.555725858999949, 35.942891627000051 ] } },
{ "type": "Feature", "properties": { "OBJECTID": 1742, "IPEDSID": "198215", "NAME": "CATAWBA COLLEGE", "ADDRESS": "2300 W INNES ST", "CITY": "SALISBURY", "STATE": "NC", "ZIP": "28144", "ZIP4": "NOT AVAILABLE", "TELEPHONE": "(800) 228-2922", "TYPE": "2", "STATUS": "A", "POPULATION": 1678, "COUNTY": "ROWAN", "COUNTYFIPS": "37159", "COUNTRY": "USA", "LATITUDE": 35.691638888000057, "LONGITUDE": -80.483874863999972, "NAICS_CODE": "611310", "NAICS_DESC": "COLLEGES, UNIVERSITIES, AND PROFESSIONAL SCHOOLS", "SOURCE": "https://nces.ed.gov/collegenavigator/?id=198215", "SOURCEDATE": "2009-12-10T00:00:00Z", "VAL_METHOD": "IMAGERY/OTHER", "VAL_DATE": "2016-06-07T00:00:00Z", "WEBSITE": "www.catawba.edu/", "STFIPS": "37", "COFIPS": "159", "SECTOR": "2", "LEVEL_": "2", "HI_OFFER": "20", "DEG_GRANT": "1", "LOCALE": "22", "CLOSE_DATE": "-2", "MERGE_ID": "-2", "ALIAS": "NOT AVAILABLE", "SIZE_SET": "22", "INST_SIZE": "2", "PT_ENROLL": 110, "FT_ENROLL": 1261, "TOT_ENROLL": 1371, "HOUSING": "1", "DORM_CAP": 851, "TOT_EMP": 307, "SHELTER_ID": "NOT AVAILABLE" }, "geometry": { "type": "Point", "coordinates": [ -80.483874863999972, 35.691638888000057 ] } },
{ "type": "Feature", "properties": { "OBJECTID": 1759, "IPEDSID": "199856", "NAME": "WAKE TECHNICAL COMMUNITY COLLEGE", "ADDRESS": "9101 FAYETTEVILLE ROAD", "CITY": "RALEIGH", "STATE": "NC", "ZIP": "27603", "ZIP4": "5696", "TELEPHONE": "(919) 866-5000", "TYPE": "1", "STATUS": "A", "POPULATION": 23872, "COUNTY": "WAKE", "COUNTYFIPS": "37183", "COUNTRY": "USA", "LATITUDE": 35.650151264000044, "LONGITUDE": -78.706125588999953, "NAICS_CODE": "611210", "NAICS_DESC": "JUNIOR COLLEGES", "SOURCE": "https://nces.ed.gov/collegenavigator/?id=199856", "SOURCEDATE": "2009-10-13T00:00:00Z", "VAL_METHOD": "IMAGERY/OTHER", "VAL_DATE": "2016-07-07T00:00:00Z", "WEBSITE": "www.waketech.edu/", "STFIPS": "37", "COFIPS": "183", "SECTOR": "4", "LEVEL_": "2", "HI_OFFER": "40", "DEG_GRANT": "1", "LOCALE": "21", "CLOSE_DATE": "-2", "MERGE_ID": "-2", "ALIAS": "NOT AVAILABLE", "SIZE_SET": "2", "INST_SIZE": "5", "PT_ENROLL": 14816, "FT_ENROLL": 6944, "TOT_ENROLL": 21760, "HOUSING": "2", "DORM_CAP": -999, "TOT_EMP": 2112, "SHELTER_ID": "NOT AVAILABLE" }, "geometry": { "type": "Point", "coordinates": [ -78.706125588999953, 35.650151264000044 ] } },
{ "type": "Feature", "properties": { "OBJECTID": 1760, "IPEDSID": "199193", "NAME": "NORTH CAROLINA STATE UNIVERSITY AT RALEIGH", "ADDRESS": "2101 HILLSBOROUGH STREET", "CITY": "RALEIGH", "STATE": "NC", "ZIP": "27695", "ZIP4": "7001", "TELEPHONE": "(919) 515-2011", "TYPE": "1", "STATUS": "A", "POPULATION": 45678, "COUNTY": "WAKE", "COUNTYFIPS": "37183", "COUNTRY": "USA", "LATITUDE": 35.785110613000029, "LONGITUDE": -78.674517163999951, "NAICS_CODE": "611310", "NAICS_DESC": "COLLEGES, UNIVERSITIES, AND PROFESSIONAL SCHOOLS", "SOURCE": "https://nces.ed.gov/collegenavigator/?id=199193", "SOURCEDATE": "2009-10-13T00:00:00Z", "VAL_METHOD": "IMAGERY/OTHER", "VAL_DATE": "2016-07-07T00:00:00Z", "WEBSITE": "www.ncsu.edu/", "STFIPS": "37", "COFIPS": "183", "SECTOR": "1", "LEVEL_": "2", "HI_OFFER": "11", "DEG_GRANT": "1", "LOCALE": "11", "CLOSE_DATE": "-2", "MERGE_ID": "-2", "ALIAS": "NC STATE UNIVERSITY | NC STATE | N C STATE UNIVERSITY | N C STATE | NCSU", "SIZE_SET": "15", "INST_SIZE": "5", "PT_ENROLL": 7728, "FT_ENROLL": 28314, "TOT_ENROLL": 36042, "HOUSING": "1", "DORM_CAP": 10433, "TOT_EMP": 9636, "SHELTER_ID": "NOT AVAILABLE" }, "geometry": { "type": "Point", "coordinates": [ -78.674517163999951, 35.785110613000029 ] } },
{ "type": "Feature", "properties": { "OBJECTID": 1761, "IPEDSID": "199643", "NAME": "SHAW UNIVERSITY", "ADDRESS": "118 EAST SOUTH STREET", "CITY": "RALEIGH", "STATE": "NC", "ZIP": "27601", "ZIP4": "NOT AVAILABLE", "TELEPHONE": "(919) 546-8200", "TYPE": "2", "STATUS": "A", "POPULATION": 1609, "COUNTY": "WAKE", "COUNTYFIPS": "37183", "COUNTRY": "USA", "LATITUDE": 35.771180686000037, "LONGITUDE": -78.637693184999989, "NAICS_CODE": "611310", "NAICS_DESC": "COLLEGES, UNIVERSITIES, AND PROFESSIONAL SCHOOLS", "SOURCE": "https://nces.ed.gov/collegenavigator/?id=199643", "SOURCEDATE": "2009-10-13T00:00:00Z", "VAL_METHOD": "IMAGERY/OTHER", "VAL_DATE": "2016-07-07T00:00:00Z", "WEBSITE": "www.shawu.edu/", "STFIPS": "37", "COFIPS": "183", "SECTOR": "2", "LEVEL_": "2", "HI_OFFER": "20", "DEG_GRANT": "1", "LOCALE": "11", "CLOSE_DATE": "-2", "MERGE_ID": "-2", "ALIAS": "NOT AVAILABLE", "SIZE_SET": "22", "INST_SIZE": "2", "PT_ENROLL": 148, "FT_ENROLL": 1135, "TOT_ENROLL": 1283, "HOUSING": "1", "DORM_CAP": 1095, "TOT_EMP": 326, "SHELTER_ID": "NOT AVAILABLE" }, "geometry": { "type": "Point", "coordinates": [ -78.637693184999989, 35.771180686000037 ] } },
{ "type": "Feature", "properties": { "OBJECTID": 1765, "IPEDSID": "198419", "NAME": "DUKE UNIVERSITY", "ADDRESS": "103 ALLEN BLDG", "CITY": "DURHAM", "STATE": "NC", "ZIP": "27708", "ZIP4": "NOT AVAILABLE", "TELEPHONE": "(919) 684-8111", "TYPE": "2", "STATUS": "A", "POPULATION": 35280, "COUNTY": "DURHAM", "COUNTYFIPS": "37063", "COUNTRY": "USA", "LATITUDE": 36.002343506000045, "LONGITUDE": -78.938597270999935, "NAICS_CODE": "611310", "NAICS_DESC": "COLLEGES, UNIVERSITIES, AND PROFESSIONAL SCHOOLS", "SOURCE": "https://nces.ed.gov/collegenavigator/?id=198419", "SOURCEDATE": "2009-10-13T00:00:00Z", "VAL_METHOD": "IMAGERY", "VAL_DATE": "2016-07-07T00:00:00Z", "WEBSITE": "www.duke.edu/", "STFIPS": "37", "COFIPS": "063", "SECTOR": "2", "LEVEL_": "2", "HI_OFFER": "11", "DEG_GRANT": "1", "LOCALE": "11", "CLOSE_DATE": "-2", "MERGE_ID": "-2", "ALIAS": "NOT AVAILABLE", "SIZE_SET": "15", "INST_SIZE": "4", "PT_ENROLL": 820, "FT_ENROLL": 15352, "TOT_ENROLL": 16172, "HOUSING": "1", "DORM_CAP": 5773, "TOT_EMP": 19108, "SHELTER_ID": "NOT AVAILABLE" }, "geometry": { "type": "Point", "coordinates": [ -78.938597270999935, 36.002343506000045 ] } },
{ "type": "Feature", "properties": { "OBJECTID": 1769, "IPEDSID": "198862", "NAME": "LIVINGSTONE COLLEGE", "ADDRESS": "701 W MONROE ST", "CITY": "SALISBURY", "STATE": "NC", "ZIP": "28144", "ZIP4": "NOT AVAILABLE", "TELEPHONE": "(704) 216-6000", "TYPE": "2", "STATUS": "A", "POPULATION": 1074, "COUNTY": "ROWAN", "COUNTYFIPS": "37159", "COUNTRY": "USA", "LATITUDE": 35.670327050000026, "LONGITUDE": -80.483447228999978, "NAICS_CODE": "611310", "NAICS_DESC": "COLLEGES, UNIVERSITIES, AND PROFESSIONAL SCHOOLS", "SOURCE": "https://nces.ed.gov/collegenavigator/?id=198862", "SOURCEDATE": "2009-12-10T00:00:00Z", "VAL_METHOD": "IMAGERY/OTHER", "VAL_DATE": "2016-06-07T00:00:00Z", "WEBSITE": "www.livingstone.edu/", "STFIPS": "37", "COFIPS": "159", "SECTOR": "2", "LEVEL_": "2", "HI_OFFER": "30", "DEG_GRANT": "1", "LOCALE": "22", "CLOSE_DATE": "-2", "MERGE_ID": "-2", "ALIAS": "LIVINGSTONE COLLEGE", "SIZE_SET": "22", "INST_SIZE": "1", "PT_ENROLL": 7, "FT_ENROLL": 838, "TOT_ENROLL": 845, "HOUSING": "1", "DORM_CAP": 1164, "TOT_EMP": 229, "SHELTER_ID": "NOT AVAILABLE" }, "geometry": { "type": "Point", "coordinates": [ -80.483447228999978, 35.670327050000026 ] } },
{ "type": "Feature", "properties": { "OBJECTID": 1784, "IPEDSID": "455178", "NAME": "DAOIST TRADITIONS COLLEGE OF CHINESE MEDICAL ARTS", "ADDRESS": "382 MONTFORD AVE", "CITY": "ASHEVILLE", "STATE": "NC", "ZIP": "28801", "ZIP4": "NOT AVAILABLE", "TELEPHONE": "(828) 225-3993", "TYPE": "3", "STATUS": "A", "POPULATION": 160, "COUNTY": "BUNCOMBE", "COUNTYFIPS": "37021", "COUNTRY": "USA", "LATITUDE": 35.606830556000034, "LONGITUDE": -82.568537010999989, "NAICS_CODE": "611310", "NAICS_DESC": "COLLEGES, UNIVERSITIES, AND PROFESSIONAL SCHOOLS", "SOURCE": "https://nces.ed.gov/collegenavigator/?id=455178", "SOURCEDATE": "2011-06-02T00:00:00Z", "VAL_METHOD": "IMAGERY/OTHER", "VAL_DATE": "2016-06-01T00:00:00Z", "WEBSITE": "daoisttraditions.edu/", "STFIPS": "37", "COFIPS": "021", "SECTOR": "3", "LEVEL_": "3", "HI_OFFER": "13", "DEG_GRANT": "1", "LOCALE": "13", "CLOSE_DATE": "-2", "MERGE_ID": "-2", "ALIAS": "NOT AVAILABLE", "SIZE_SET": "26", "INST_SIZE": "1", "PT_ENROLL": 6, "FT_ENROLL": 104, "TOT_ENROLL": 110, "HOUSING": "2", "DORM_CAP": -999, "TOT_EMP": 50, "SHELTER_ID": "NOT AVAILABLE" }, "geometry": { "type": "Point", "coordinates": [ -82.568537010999989, 35.606830556000034 ] } },
{ "type": "Feature", "properties": { "OBJECTID": 1788, "IPEDSID": "455910", "NAME": "CENTER FOR MASSAGE", "ADDRESS": "16 EAGLE STREET, SUITE 100", "CITY": "ASHEVILLE", "STATE": "NC", "ZIP": "28801", "ZIP4": "NOT AVAILABLE", "TELEPHONE": "(828) 658-0814", "TYPE": "3", "STATUS": "A", "POPULATION": 63, "COUNTY": "BUNCOMBE", "COUNTYFIPS": "37021", "COUNTRY": "USA", "LATITUDE": 35.594020225000065, "LONGITUDE": -82.550647142999935, "NAICS_CODE": "611519", "NAICS_DESC": "OTHER TECHNICAL AND TRADE SCHOOLS", "SOURCE": "https://nces.ed.gov/collegenavigator/?id=455910", "SOURCEDATE": "2011-06-02T00:00:00Z", "VAL_METHOD": "IMAGERY/OTHER", "VAL_DATE": "2019-04-08T00:00:00Z", "WEBSITE": "centerformassage.com/", "STFIPS": "37", "COFIPS": "021", "SECTOR": "9", "LEVEL_": "3", "HI_OFFER": "0", "DEG_GRANT": "2", "LOCALE": "13", "CLOSE_DATE": "-2", "MERGE_ID": "-2", "ALIAS": "NOT AVAILABLE", "SIZE_SET": "-2", "INST_SIZE": "1", "PT_ENROLL": -999, "FT_ENROLL": 38, "TOT_ENROLL": 38, "HOUSING": "2", "DORM_CAP": -999, "TOT_EMP": 25, "SHELTER_ID": "NOT AVAILABLE" }, "geometry": { "type": "Point", "coordinates": [ -82.550647142999935, 35.594020225000065 ] } },
{ "type": "Feature", "properties": { "OBJECTID": 1789, "IPEDSID": "456205", "NAME": "PLATT COLLEGE-MILLER-MOTTE-RALEIGH", "ADDRESS": "3901 CAPITAL BLVD STE 151", "CITY": "RALEIGH", "STATE": "NC", "ZIP": "27604", "ZIP4": "6072", "TELEPHONE": "(919) 723-2820", "TYPE": "3", "STATUS": "A", "POPULATION": 330, "COUNTY": "WAKE", "COUNTYFIPS": "37183", "COUNTRY": "USA", "LATITUDE": 35.83472718400003, "LONGITUDE": -78.585928757999966, "NAICS_CODE": "611210", "NAICS_DESC": "JUNIOR COLLEGES", "SOURCE": "https://nces.ed.gov/collegenavigator/?id=456205", "SOURCEDATE": "2011-06-02T00:00:00Z", "VAL_METHOD": "IMAGERY/OTHER", "VAL_DATE": "2020-01-31T00:00:00Z", "WEBSITE": "https://www.miller-motte.edu/", "STFIPS": "37", "COFIPS": "183", "SECTOR": "6", "LEVEL_": "2", "HI_OFFER": "40", "DEG_GRANT": "1", "LOCALE": "11", "CLOSE_DATE": "-2", "MERGE_ID": "-2", "ALIAS": "NOT AVAILABLE", "SIZE_SET": "10", "INST_SIZE": "1", "PT_ENROLL": 5, "FT_ENROLL": 277, "TOT_ENROLL": 282, "HOUSING": "2", "DORM_CAP": -999, "TOT_EMP": 48, "SHELTER_ID": "NOT AVAILABLE" }, "geometry": { "type": "Point", "coordinates": [ -78.585928757999966, 35.83472718400003 ] } },
{ "type": "Feature", "properties": { "OBJECTID": 1845, "IPEDSID": "198613", "NAME": "GUILFORD COLLEGE", "ADDRESS": "5800 W FRIENDLY AVENUE", "CITY": "GREENSBORO", "STATE": "NC", "ZIP": "27410", "ZIP4": "4108", "TELEPHONE": "(336) 316-2000", "TYPE": "2", "STATUS": "A", "POPULATION": 1754, "COUNTY": "GUILFORD", "COUNTYFIPS": "37081", "COUNTRY": "USA", "LATITUDE": 36.092562592000036, "LONGITUDE": -79.888847867999971, "NAICS_CODE": "611310", "NAICS_DESC": "COLLEGES, UNIVERSITIES, AND PROFESSIONAL SCHOOLS", "SOURCE": "https://nces.ed.gov/collegenavigator/?id=198613", "SOURCEDATE": "2009-10-13T00:00:00Z", "VAL_METHOD": "IMAGERY", "VAL_DATE": "2016-06-14T00:00:00Z", "WEBSITE": "https://www.guilford.edu/", "STFIPS": "37", "COFIPS": "081", "SECTOR": "2", "LEVEL_": "1", "HI_OFFER": "20", "DEG_GRANT": "1", "LOCALE": "11", "CLOSE_DATE": "-2", "MERGE_ID": "-2", "ALIAS": "NOT AVAILABLE", "SIZE_SET": "21", "INST_SIZE": "2", "PT_ENROLL": 136, "FT_ENROLL": 1293, "TOT_ENROLL": 1429, "HOUSING": "1", "DORM_CAP": 1030, "TOT_EMP": 325, "SHELTER_ID": "NOT AVAILABLE" }, "geometry": { "type": "Point", "coordinates": [ -79.888847867999971, 36.092562592000036 ] } },
{ "type": "Feature", "properties": { "OBJECTID": 1846, "IPEDSID": "198640", "NAME": "HALIFAX COMMUNITY COLLEGE", "ADDRESS": "100 COLLEGE DRIVE", "CITY": "WELDON", "STATE": "NC", "ZIP": "27890", "ZIP4": "NOT AVAILABLE", "TELEPHONE": "(252) 536-2551", "TYPE": "1", "STATUS": "A", "POPULATION": 1298, "COUNTY": "HALIFAX", "COUNTYFIPS": "37083", "COUNTRY": "USA", "LATITUDE": 36.42771237200003, "LONGITUDE": -77.617680972999949, "NAICS_CODE": "611210", "NAICS_DESC": "JUNIOR COLLEGES", "SOURCE": "https://nces.ed.gov/collegenavigator/?id=198640", "SOURCEDATE": "2009-10-13T00:00:00Z", "VAL_METHOD": "IMAGERY", "VAL_DATE": "2016-06-14T00:00:00Z", "WEBSITE": "www.halifaxcc.edu/", "STFIPS": "37", "COFIPS": "083", "SECTOR": "4", "LEVEL_": "2", "HI_OFFER": "40", "DEG_GRANT": "1", "LOCALE": "41", "CLOSE_DATE": "-2", "MERGE_ID": "-2", "ALIAS": "NOT AVAILABLE", "SIZE_SET": "8", "INST_SIZE": "1", "PT_ENROLL": 761, "FT_ENROLL": 227, "TOT_ENROLL": 988, "HOUSING": "2", "DORM_CAP": -999, "TOT_EMP": 310, "SHELTER_ID": "NOT AVAILABLE" }, "geometry": { "type": "Point", "coordinates": [ -77.617680972999949, 36.42771237200003 ] } },
{ "type": "Feature", "properties": { "OBJECTID": 1847, "IPEDSID": "198969", "NAME": "METHODIST UNIVERSITY", "ADDRESS": "5400 RAMSEY ST", "CITY": "FAYETTEVILLE", "STATE": "NC", "ZIP": "28311", "ZIP4": "1420", "TELEPHONE": "(910) 630-7000", "TYPE": "2", "STATUS": "A", "POPULATION": 2276, "COUNTY": "CUMBERLAND", "COUNTYFIPS": "37051", "COUNTRY": "USA", "LATITUDE": 35.134190277000073, "LONGITUDE": -78.873882358999936, "NAICS_CODE": "611310", "NAICS_DESC": "COLLEGES, UNIVERSITIES, AND PROFESSIONAL SCHOOLS", "SOURCE": "https://nces.ed.gov/collegenavigator/?id=198969", "SOURCEDATE": "2009-10-13T00:00:00Z", "VAL_METHOD": "IMAGERY/OTHER", "VAL_DATE": "2016-06-14T00:00:00Z", "WEBSITE": "www.methodist.edu/", "STFIPS": "37", "COFIPS": "051", "SECTOR": "2", "LEVEL_": "1", "HI_OFFER": "13", "DEG_GRANT": "1", "LOCALE": "12", "CLOSE_DATE": "-2", "MERGE_ID": "-2", "ALIAS": "METHODIST", "SIZE_SET": "20", "INST_SIZE": "2", "PT_ENROLL": 180, "FT_ENROLL": 1593, "TOT_ENROLL": 1773, "HOUSING": "1", "DORM_CAP": 1174, "TOT_EMP": 503, "SHELTER_ID": "NOT AVAILABLE" }, "geometry": { "type": "Point", "coordinates": [ -78.873882358999936, 35.134190277000073 ] } },
{ "type": "Feature", "properties": { "OBJECTID": 1848, "IPEDSID": "199069", "NAME": "UNIVERSITY OF MOUNT OLIVE", "ADDRESS": "634 HENDERSON ST", "CITY": "MOUNT OLIVE", "STATE": "NC", "ZIP": "28365", "ZIP4": "0919", "TELEPHONE": "(919) 658-2502", "TYPE": "2", "STATUS": "A", "POPULATION": 2880, "COUNTY": "WAYNE", "COUNTYFIPS": "37191", "COUNTRY": "USA", "LATITUDE": 35.206314276000057, "LONGITUDE": -78.0712652, "NAICS_CODE": "611310", "NAICS_DESC": "COLLEGES, UNIVERSITIES, AND PROFESSIONAL SCHOOLS", "SOURCE": "https://nces.ed.gov/collegenavigator/?id=199069", "SOURCEDATE": "2009-10-13T00:00:00Z", "VAL_METHOD": "IMAGERY", "VAL_DATE": "2016-06-14T00:00:00Z", "WEBSITE": "https://www.umo.edu/", "STFIPS": "37", "COFIPS": "191", "SECTOR": "2", "LEVEL_": "1", "HI_OFFER": "20", "DEG_GRANT": "1", "LOCALE": "31", "CLOSE_DATE": "-2", "MERGE_ID": "-2", "ALIAS": "NOT AVAILABLE", "SIZE_SET": "22", "INST_SIZE": "2", "PT_ENROLL": 1133, "FT_ENROLL": 1403, "TOT_ENROLL": 2536, "HOUSING": "1", "DORM_CAP": 700, "TOT_EMP": 344, "SHELTER_ID": "NOT AVAILABLE" }, "geometry": { "type": "Point", "coordinates": [ -78.071265199999971, 35.206314276000057 ] } },
{ "type": "Feature", "properties": { "OBJECTID": 1849, "IPEDSID": "199078", "NAME": "COLLEGE OF WILMINGTON", "ADDRESS": "3500 OLEANDER DRIVE SUITE 1111", "CITY": "WILMINGTON", "STATE": "NC", "ZIP": "28403", "ZIP4": "NOT AVAILABLE", "TELEPHONE": "(910) 763-4418", "TYPE": "3", "STATUS": "A", "POPULATION": 163, "COUNTY": "NEW HANOVER", "COUNTYFIPS": "37129", "COUNTRY": "USA", "LATITUDE": 34.212064, "LONGITUDE": -77.905882, "NAICS_CODE": "611511", "NAICS_DESC": "COSMETOLOGY AND BARBER SCHOOLS", "SOURCE": "https://nces.ed.gov/collegenavigator/?id=199078", "SOURCEDATE": "2009-10-13T00:00:00Z", "VAL_METHOD": "IMAGERY/OTHER", "VAL_DATE": "2019-03-19T00:00:00Z", "WEBSITE": "www.collegeofwilmington.edu/", "STFIPS": "37", "COFIPS": "129", "SECTOR": "9", "LEVEL_": "1", "HI_OFFER": "0", "DEG_GRANT": "2", "LOCALE": "12", "CLOSE_DATE": "-2", "MERGE_ID": "-2", "ALIAS": "NOT AVAILABLE", "SIZE_SET": "-2", "INST_SIZE": "1", "PT_ENROLL": 15, "FT_ENROLL": 134, "TOT_ENROLL": 149, "HOUSING": "2", "DORM_CAP": -999, "TOT_EMP": 14, "SHELTER_ID": "NOT AVAILABLE" }, "geometry": { "type": "Point", "coordinates": [ -77.905882, 34.212064 ] } },
{ "type": "Feature", "properties": { "OBJECTID": 1982, "IPEDSID": "461032", "NAME": "CAROLINA COLLEGE OF BIBLICAL STUDIES", "ADDRESS": "817 SOUTH MCPHERSON CHURCH ROAD", "CITY": "FAYETTEVILLE", "STATE": "NC", "ZIP": "28303", "ZIP4": "5157", "TELEPHONE": "(910) 323-5614", "TYPE": "2", "STATUS": "A", "POPULATION": 207, "COUNTY": "CUMBERLAND", "COUNTYFIPS": "37051", "COUNTRY": "USA", "LATITUDE": 35.051409892000038, "LONGITUDE": -78.939514495999958, "NAICS_CODE": "611310", "NAICS_DESC": "COLLEGES, UNIVERSITIES, AND PROFESSIONAL SCHOOLS", "SOURCE": "https://nces.ed.gov/collegenavigator/?id=461032", "SOURCEDATE": "2013-06-25T00:00:00Z", "VAL_METHOD": "IMAGERY/OTHER", "VAL_DATE": "2016-05-26T00:00:00Z", "WEBSITE": "ccbs.edu/", "STFIPS": "37", "COFIPS": "051", "SECTOR": "2", "LEVEL_": "3", "HI_OFFER": "20", "DEG_GRANT": "1", "LOCALE": "12", "CLOSE_DATE": "-2", "MERGE_ID": "-2", "ALIAS": "NOT AVAILABLE", "SIZE_SET": "24", "INST_SIZE": "1", "PT_ENROLL": 100, "FT_ENROLL": 67, "TOT_ENROLL": 167, "HOUSING": "2", "DORM_CAP": -999, "TOT_EMP": 40, "SHELTER_ID": "NOT AVAILABLE" }, "geometry": { "type": "Point", "coordinates": [ -78.939514495999958, 35.051409892000038 ] } },
{ "type": "Feature", "properties": { "OBJECTID": 1995, "IPEDSID": "461528", "NAME": "GRACE COLLEGE OF DIVINITY", "ADDRESS": "5117 CLIFFDALE ROAD", "CITY": "FAYETTEVILLE", "STATE": "NC", "ZIP": "28314", "ZIP4": "2343", "TELEPHONE": "(910) 221-2224", "TYPE": "2", "STATUS": "A", "POPULATION": 298, "COUNTY": "CUMBERLAND", "COUNTYFIPS": "37051", "COUNTRY": "USA", "LATITUDE": 35.058615558000042, "LONGITUDE": -78.961305130999961, "NAICS_CODE": "611310", "NAICS_DESC": "COLLEGES, UNIVERSITIES, AND PROFESSIONAL SCHOOLS", "SOURCE": "https://nces.ed.gov/collegenavigator/?id=461528", "SOURCEDATE": "2013-06-25T00:00:00Z", "VAL_METHOD": "IMAGERY/OTHER", "VAL_DATE": "2016-05-27T00:00:00Z", "WEBSITE": "www.gcd.edu/", "STFIPS": "37", "COFIPS": "051", "SECTOR": "2", "LEVEL_": "3", "HI_OFFER": "12", "DEG_GRANT": "1", "LOCALE": "12", "CLOSE_DATE": "-2", "MERGE_ID": "-2", "ALIAS": "GCD", "SIZE_SET": "24", "INST_SIZE": "1", "PT_ENROLL": 161, "FT_ENROLL": 86, "TOT_ENROLL": 247, "HOUSING": "2", "DORM_CAP": -999, "TOT_EMP": 51, "SHELTER_ID": "NOT AVAILABLE" }, "geometry": { "type": "Point", "coordinates": [ -78.961305130999961, 35.058615558000042 ] } },
{ "type": "Feature", "properties": { "OBJECTID": 2100, "IPEDSID": "197887", "NAME": "ASHEVILLE-BUNCOMBE TECHNICAL COMMUNITY COLLEGE", "ADDRESS": "340 VICTORIA RD", "CITY": "ASHEVILLE", "STATE": "NC", "ZIP": "28801", "ZIP4": "4897", "TELEPHONE": "(828) 254-1921", "TYPE": "1", "STATUS": "A", "POPULATION": 7594, "COUNTY": "BUNCOMBE", "COUNTYFIPS": "37021", "COUNTRY": "USA", "LATITUDE": 35.57105462800007, "LONGITUDE": -82.555838058999939, "NAICS_CODE": "611210", "NAICS_DESC": "JUNIOR COLLEGES", "SOURCE": "https://nces.ed.gov/collegenavigator/?id=197887", "SOURCEDATE": "2009-10-13T00:00:00Z", "VAL_METHOD": "IMAGERY/OTHER", "VAL_DATE": "2016-07-07T00:00:00Z", "WEBSITE": "www.abtech.edu/", "STFIPS": "37", "COFIPS": "021", "SECTOR": "4", "LEVEL_": "1", "HI_OFFER": "40", "DEG_GRANT": "1", "LOCALE": "13", "CLOSE_DATE": "-2", "MERGE_ID": "-2", "ALIAS": "A-B TECH", "SIZE_SET": "5", "INST_SIZE": "3", "PT_ENROLL": 4685, "FT_ENROLL": 1916, "TOT_ENROLL": 6601, "HOUSING": "2", "DORM_CAP": -999, "TOT_EMP": 993, "SHELTER_ID": "NOT AVAILABLE" }, "geometry": { "type": "Point", "coordinates": [ -82.555838058999939, 35.57105462800007 ] } },
{ "type": "Feature", "properties": { "OBJECTID": 2101, "IPEDSID": "198118", "NAME": "CALDWELL COMMUNITY COLLEGE AND TECHNICAL INSTITUTE", "ADDRESS": "2855 HICKORY BOULEVARD", "CITY": "HUDSON", "STATE": "NC", "ZIP": "28638", "ZIP4": "NOT AVAILABLE", "TELEPHONE": "(828) 726-2200", "TYPE": "1", "STATUS": "A", "POPULATION": 4460, "COUNTY": "CALDWELL", "COUNTYFIPS": "37027", "COUNTRY": "USA", "LATITUDE": 35.854603692000069, "LONGITUDE": -81.484147717999974, "NAICS_CODE": "611210", "NAICS_DESC": "JUNIOR COLLEGES", "SOURCE": "https://nces.ed.gov/collegenavigator/?id=198118", "SOURCEDATE": "2009-10-13T00:00:00Z", "VAL_METHOD": "IMAGERY/OTHER", "VAL_DATE": "2016-07-07T00:00:00Z", "WEBSITE": "https://www.cccti.edu/", "STFIPS": "37", "COFIPS": "027", "SECTOR": "4", "LEVEL_": "3", "HI_OFFER": "40", "DEG_GRANT": "1", "LOCALE": "22", "CLOSE_DATE": "-2", "MERGE_ID": "-2", "ALIAS": "CCCTI", "SIZE_SET": "1", "INST_SIZE": "2", "PT_ENROLL": 2403, "FT_ENROLL": 1442, "TOT_ENROLL": 3845, "HOUSING": "2", "DORM_CAP": -999, "TOT_EMP": 615, "SHELTER_ID": "10781388" }, "geometry": { "type": "Point", "coordinates": [ -81.484147717999974, 35.854603692000069 ] } },
{ "type": "Feature", "properties": { "OBJECTID": 2102, "IPEDSID": "199926", "NAME": "WILKES COMMUNITY COLLEGE", "ADDRESS": "1328 SOUTH COLLEGIATE DR", "CITY": "WILKESBORO", "STATE": "NC", "ZIP": "28697", "ZIP4": "NOT AVAILABLE", "TELEPHONE": "(336) 838-6100", "TYPE": "1", "STATUS": "A", "POPULATION": 3106, "COUNTY": "WILKES", "COUNTYFIPS": "37193", "COUNTRY": "USA", "LATITUDE": 36.136572177000062, "LONGITUDE": -81.184467927999947, "NAICS_CODE": "611210", "NAICS_DESC": "JUNIOR COLLEGES", "SOURCE": "https://nces.ed.gov/collegenavigator/?id=199926", "SOURCEDATE": "2009-10-13T00:00:00Z", "VAL_METHOD": "IMAGERY/OTHER", "VAL_DATE": "2016-07-07T00:00:00Z", "WEBSITE": "www.wilkescc.edu/", "STFIPS": "37", "COFIPS": "193", "SECTOR": "4", "LEVEL_": "3", "HI_OFFER": "40", "DEG_GRANT": "1", "LOCALE": "32", "CLOSE_DATE": "-2", "MERGE_ID": "-2", "ALIAS": "NOT AVAILABLE", "SIZE_SET": "2", "INST_SIZE": "2", "PT_ENROLL": 1497, "FT_ENROLL": 938, "TOT_ENROLL": 2435, "HOUSING": "2", "DORM_CAP": -999, "TOT_EMP": 671, "SHELTER_ID": "NOT AVAILABLE" }, "geometry": { "type": "Point", "coordinates": [ -81.184467927999947, 36.136572177000062 ] } },
{ "type": "Feature", "properties": { "OBJECTID": 2576, "IPEDSID": "198516", "NAME": "ELON UNIVERSITY", "ADDRESS": "100 CAMPUS DRIVE", "CITY": "ELON", "STATE": "NC", "ZIP": "27244", "ZIP4": "2010", "TELEPHONE": "(336) 278-2000", "TYPE": "2", "STATUS": "A", "POPULATION": 8707, "COUNTY": "ALAMANCE", "COUNTYFIPS": "37001", "COUNTRY": "USA", "LATITUDE": 36.104149, "LONGITUDE": -79.505632, "NAICS_CODE": "611310", "NAICS_DESC": "COLLEGES, UNIVERSITIES, AND PROFESSIONAL SCHOOLS", "SOURCE": "https://nces.ed.gov/collegenavigator/?id=198516", "SOURCEDATE": "2009-12-31T00:00:00Z", "VAL_METHOD": "IMAGERY", "VAL_DATE": "2016-06-03T00:00:00Z", "WEBSITE": "www.elon.edu/", "STFIPS": "37", "COFIPS": "001", "SECTOR": "2", "LEVEL_": "3", "HI_OFFER": "13", "DEG_GRANT": "1", "LOCALE": "22", "CLOSE_DATE": "-2", "MERGE_ID": "-2", "ALIAS": "NOT AVAILABLE", "SIZE_SET": "19", "INST_SIZE": "3", "PT_ENROLL": 299, "FT_ENROLL": 6818, "TOT_ENROLL": 7117, "HOUSING": "1", "DORM_CAP": 4192, "TOT_EMP": 1590, "SHELTER_ID": "NOT AVAILABLE" }, "geometry": { "type": "Point", "coordinates": [ -79.505632, 36.104149 ] } },
{ "type": "Feature", "properties": { "OBJECTID": 2691, "IPEDSID": "444778", "NAME": "CHARLOTTE CHRISTIAN COLLEGE AND THEOLOGICAL SEMINARY", "ADDRESS": "7520 EAST INDEPENDENCE BLVD, SUITE 100", "CITY": "CHARLOTTE", "STATE": "NC", "ZIP": "28227", "ZIP4": "NOT AVAILABLE", "TELEPHONE": "(704) 334-6882 EXT 100", "TYPE": "2", "STATUS": "A", "POPULATION": 226, "COUNTY": "MECKLENBURG", "COUNTYFIPS": "37119", "COUNTRY": "USA", "LATITUDE": 35.242999414000053, "LONGITUDE": -80.802527306999934, "NAICS_CODE": "611310", "NAICS_DESC": "COLLEGES, UNIVERSITIES, AND PROFESSIONAL SCHOOLS", "SOURCE": "https://nces.ed.gov/collegenavigator/?id=444778", "SOURCEDATE": "2009-10-13T00:00:00Z", "VAL_METHOD": "IMAGERY", "VAL_DATE": "2016-06-20T00:00:00Z", "WEBSITE": "www.charlottechristian.edu/", "STFIPS": "37", "COFIPS": "119", "SECTOR": "2", "LEVEL_": "3", "HI_OFFER": "13", "DEG_GRANT": "1", "LOCALE": "11", "CLOSE_DATE": "-2", "MERGE_ID": "-2", "ALIAS": "CCCTS", "SIZE_SET": "24", "INST_SIZE": "1", "PT_ENROLL": 80, "FT_ENROLL": 102, "TOT_ENROLL": 182, "HOUSING": "2", "DORM_CAP": -999, "TOT_EMP": 44, "SHELTER_ID": "NOT AVAILABLE" }, "geometry": { "type": "Point", "coordinates": [ -80.802527306999934, 35.242999414000053 ] } },
{ "type": "Feature", "properties": { "OBJECTID": 2711, "IPEDSID": "451352", "NAME": "SOUTHEASTERN COLLEGE-CHARLOTTE", "ADDRESS": "207 REGENCY EXECUTIVE PARK DRIVE", "CITY": "CHARLOTTE", "STATE": "NC", "ZIP": "28217", "ZIP4": "NOT AVAILABLE", "TELEPHONE": "(704) 527-4979", "TYPE": "3", "STATUS": "A", "POPULATION": 365, "COUNTY": "MECKLENBURG", "COUNTYFIPS": "37119", "COUNTRY": "USA", "LATITUDE": 35.167928, "LONGITUDE": -80.887233, "NAICS_CODE": "611519", "NAICS_DESC": "OTHER TECHNICAL AND TRADE SCHOOLS", "SOURCE": "https://nces.ed.gov/collegenavigator/?id=451352", "SOURCEDATE": "2009-12-31T00:00:00Z", "VAL_METHOD": "IMAGERY", "VAL_DATE": "2016-06-06T00:00:00Z", "WEBSITE": "www.southeasterninstitute.com/", "STFIPS": "37", "COFIPS": "119", "SECTOR": "9", "LEVEL_": "1", "HI_OFFER": "0", "DEG_GRANT": "2", "LOCALE": "11", "CLOSE_DATE": "-2", "MERGE_ID": "-2", "ALIAS": "NOT AVAILABLE", "SIZE_SET": "-2", "INST_SIZE": "1", "PT_ENROLL": 138, "FT_ENROLL": 179, "TOT_ENROLL": 317, "HOUSING": "2", "DORM_CAP": -999, "TOT_EMP": 48, "SHELTER_ID": "NOT AVAILABLE" }, "geometry": { "type": "Point", "coordinates": [ -80.887233, 35.167928 ] } },
{ "type": "Feature", "properties": { "OBJECTID": 2845, "IPEDSID": "198808", "NAME": "LEES-MCRAE COLLEGE", "ADDRESS": "191 MAIN STREET", "CITY": "BANNER ELK", "STATE": "NC", "ZIP": "28604", "ZIP4": "NOT AVAILABLE", "TELEPHONE": "(828) 898-5241", "TYPE": "2", "STATUS": "A", "POPULATION": 1058, "COUNTY": "AVERY", "COUNTYFIPS": "37011", "COUNTRY": "USA", "LATITUDE": 36.162477495000076, "LONGITUDE": -81.873370511999951, "NAICS_CODE": "611310", "NAICS_DESC": "COLLEGES, UNIVERSITIES, AND PROFESSIONAL SCHOOLS", "SOURCE": "https://nces.ed.gov/collegenavigator/?id=198808", "SOURCEDATE": "2009-10-13T00:00:00Z", "VAL_METHOD": "IMAGERY/OTHER", "VAL_DATE": "2016-06-29T00:00:00Z", "WEBSITE": "www.lmc.edu/", "STFIPS": "37", "COFIPS": "011", "SECTOR": "2", "LEVEL_": "1", "HI_OFFER": "20", "DEG_GRANT": "1", "LOCALE": "42", "CLOSE_DATE": "-2", "MERGE_ID": "-2", "ALIAS": "NOT AVAILABLE", "SIZE_SET": "22", "INST_SIZE": "1", "PT_ENROLL": 48, "FT_ENROLL": 790, "TOT_ENROLL": 838, "HOUSING": "1", "DORM_CAP": 632, "TOT_EMP": 220, "SHELTER_ID": "NOT AVAILABLE" }, "geometry": { "type": "Point", "coordinates": [ -81.873370511999951, 36.162477495000076 ] } },
{ "type": "Feature", "properties": { "OBJECTID": 2846, "IPEDSID": "197966", "NAME": "BEAUFORT COUNTY COMMUNITY COLLEGE", "ADDRESS": "5337 US HIGHWAY 264 EAST", "CITY": "WASHINGTON", "STATE": "NC", "ZIP": "27889", "ZIP4": "NOT AVAILABLE", "TELEPHONE": "(252) 946-6194", "TYPE": "1", "STATUS": "A", "POPULATION": 1798, "COUNTY": "BEAUFORT", "COUNTYFIPS": "37013", "COUNTRY": "USA", "LATITUDE": 35.533567480000045, "LONGITUDE": -76.965418171999943, "NAICS_CODE": "611210", "NAICS_DESC": "JUNIOR COLLEGES", "SOURCE": "https://nces.ed.gov/collegenavigator/?id=197966", "SOURCEDATE": "2009-10-13T00:00:00Z", "VAL_METHOD": "IMAGERY/OTHER", "VAL_DATE": "2016-06-29T00:00:00Z", "WEBSITE": "www.beaufortccc.edu/", "STFIPS": "37", "COFIPS": "013", "SECTOR": "4", "LEVEL_": "1", "HI_OFFER": "40", "DEG_GRANT": "1", "LOCALE": "41", "CLOSE_DATE": "-2", "MERGE_ID": "-2", "ALIAS": "NOT AVAILABLE", "SIZE_SET": "5", "INST_SIZE": "2", "PT_ENROLL": 964, "FT_ENROLL": 418, "TOT_ENROLL": 1382, "HOUSING": "2", "DORM_CAP": -999, "TOT_EMP": 416, "SHELTER_ID": "NOT AVAILABLE" }, "geometry": { "type": "Point", "coordinates": [ -76.965418171999943, 35.533567480000045 ] } },
{ "type": "Feature", "properties": { "OBJECTID": 2847, "IPEDSID": "198109", "NAME": "CABARRUS COLLEGE OF HEALTH SCIENCES", "ADDRESS": "401 MEDICAL PARK DRIVE", "CITY": "CONCORD", "STATE": "NC", "ZIP": "28025", "ZIP4": "3959", "TELEPHONE": "(704) 403-1555", "TYPE": "2", "STATUS": "A", "POPULATION": 621, "COUNTY": "CABARRUS", "COUNTYFIPS": "37025", "COUNTRY": "USA", "LATITUDE": 35.440038170000037, "LONGITUDE": -80.600823544999969, "NAICS_CODE": "611310", "NAICS_DESC": "COLLEGES, UNIVERSITIES, AND PROFESSIONAL SCHOOLS", "SOURCE": "https://nces.ed.gov/collegenavigator/?id=198109", "SOURCEDATE": "2009-10-13T00:00:00Z", "VAL_METHOD": "IMAGERY/OTHER", "VAL_DATE": "2016-06-29T00:00:00Z", "WEBSITE": "www.atriumhealth.org/education/cabarrus-college-of-health-sciences", "STFIPS": "37", "COFIPS": "025", "SECTOR": "2", "LEVEL_": "1", "HI_OFFER": "20", "DEG_GRANT": "1", "LOCALE": "13", "CLOSE_DATE": "-2", "MERGE_ID": "-2", "ALIAS": "NOT AVAILABLE", "SIZE_SET": "26", "INST_SIZE": "1", "PT_ENROLL": 294, "FT_ENROLL": 232, "TOT_ENROLL": 526, "HOUSING": "2", "DORM_CAP": -999, "TOT_EMP": 95, "SHELTER_ID": "NOT AVAILABLE" }, "geometry": { "type": "Point", "coordinates": [ -80.600823544999969, 35.440038170000037 ] } },
{ "type": "Feature", "properties": { "OBJECTID": 2848, "IPEDSID": "198899", "NAME": "MARS HILL UNIVERSITY", "ADDRESS": "100 ATHLETIC ST", "CITY": "MARS HILL", "STATE": "NC", "ZIP": "28754", "ZIP4": "NOT AVAILABLE", "TELEPHONE": "(828) 689-4968", "TYPE": "2", "STATUS": "A", "POPULATION": 1361, "COUNTY": "MADISON", "COUNTYFIPS": "37115", "COUNTRY": "USA", "LATITUDE": 35.825857589000066, "LONGITUDE": -82.550859179999975, "NAICS_CODE": "611310", "NAICS_DESC": "COLLEGES, UNIVERSITIES, AND PROFESSIONAL SCHOOLS", "SOURCE": "https://nces.ed.gov/collegenavigator/?id=198899", "SOURCEDATE": "2009-10-13T00:00:00Z", "VAL_METHOD": "IMAGERY", "VAL_DATE": "2016-06-29T00:00:00Z", "WEBSITE": "www.mhu.edu/", "STFIPS": "37", "COFIPS": "115", "SECTOR": "2", "LEVEL_": "1", "HI_OFFER": "20", "DEG_GRANT": "1", "LOCALE": "21", "CLOSE_DATE": "-2", "MERGE_ID": "-2", "ALIAS": "NOT AVAILABLE", "SIZE_SET": "22", "INST_SIZE": "2", "PT_ENROLL": 73, "FT_ENROLL": 976, "TOT_ENROLL": 1049, "HOUSING": "1", "DORM_CAP": 889, "TOT_EMP": 312, "SHELTER_ID": "NOT AVAILABLE" }, "geometry": { "type": "Point", "coordinates": [ -82.550859179999975, 35.825857589000066 ] } },
{ "type": "Feature", "properties": { "OBJECTID": 2849, "IPEDSID": "199087", "NAME": "NASH COMMUNITY COLLEGE", "ADDRESS": "522 N. OLD CARRIAGE ROAD", "CITY": "ROCKY MOUNT", "STATE": "NC", "ZIP": "27804", "ZIP4": "NOT AVAILABLE", "TELEPHONE": "(252) 443-4011", "TYPE": "1", "STATUS": "A", "POPULATION": 3176, "COUNTY": "NASH", "COUNTYFIPS": "37127", "COUNTRY": "USA", "LATITUDE": 35.976545760000079, "LONGITUDE": -77.897381639999935, "NAICS_CODE": "611210", "NAICS_DESC": "JUNIOR COLLEGES", "SOURCE": "https://nces.ed.gov/collegenavigator/?id=199087", "SOURCEDATE": "2009-10-13T00:00:00Z", "VAL_METHOD": "IMAGERY/OTHER", "VAL_DATE": "2016-06-29T00:00:00Z", "WEBSITE": "https://www.nashcc.edu/", "STFIPS": "37", "COFIPS": "127", "SECTOR": "4", "LEVEL_": "3", "HI_OFFER": "40", "DEG_GRANT": "1", "LOCALE": "41", "CLOSE_DATE": "-2", "MERGE_ID": "-2", "ALIAS": "NOT AVAILABLE", "SIZE_SET": "5", "INST_SIZE": "2", "PT_ENROLL": 1930, "FT_ENROLL": 693, "TOT_ENROLL": 2623, "HOUSING": "2", "DORM_CAP": -999, "TOT_EMP": 553, "SHELTER_ID": "NOT AVAILABLE" }, "geometry": { "type": "Point", "coordinates": [ -77.897381639999935, 35.976545760000079 ] } },
{ "type": "Feature", "properties": { "OBJECTID": 2850, "IPEDSID": "199476", "NAME": "ROBESON COMMUNITY COLLEGE", "ADDRESS": "5160 FAYETTEVILLE ROAD", "CITY": "LUMBERTON", "STATE": "NC", "ZIP": "28360", "ZIP4": "NOT AVAILABLE", "TELEPHONE": "(910) 272-3700", "TYPE": "1", "STATUS": "A", "POPULATION": 2215, "COUNTY": "ROBESON", "COUNTYFIPS": "37155", "COUNTRY": "USA", "LATITUDE": 34.675133475000052, "LONGITUDE": -79.00717814099994, "NAICS_CODE": "611210", "NAICS_DESC": "JUNIOR COLLEGES", "SOURCE": "https://nces.ed.gov/collegenavigator/?id=199476", "SOURCEDATE": "2009-10-13T00:00:00Z", "VAL_METHOD": "IMAGERY/OTHER", "VAL_DATE": "2016-06-29T00:00:00Z", "WEBSITE": "www.robeson.edu/", "STFIPS": "37", "COFIPS": "155", "SECTOR": "4", "LEVEL_": "3", "HI_OFFER": "40", "DEG_GRANT": "1", "LOCALE": "32", "CLOSE_DATE": "-2", "MERGE_ID": "-2", "ALIAS": "NOT AVAILABLE", "SIZE_SET": "5", "INST_SIZE": "2", "PT_ENROLL": 1038, "FT_ENROLL": 790, "TOT_ENROLL": 1828, "HOUSING": "2", "DORM_CAP": -999, "TOT_EMP": 387, "SHELTER_ID": "NOT AVAILABLE" }, "geometry": { "type": "Point", "coordinates": [ -79.00717814099994, 34.675133475000052 ] } },
{ "type": "Feature", "properties": { "OBJECTID": 2851, "IPEDSID": "199698", "NAME": "ST. ANDREWS UNIVERSITY", "ADDRESS": "1700 DOGWOOD MILE", "CITY": "LAURINBURG", "STATE": "NC", "ZIP": "28352", "ZIP4": "NOT AVAILABLE", "TELEPHONE": "(910) 277-5555", "TYPE": "2", "STATUS": "A", "POPULATION": 1186, "COUNTY": "SCOTLAND", "COUNTYFIPS": "37165", "COUNTRY": "USA", "LATITUDE": 34.745643422000057, "LONGITUDE": -79.478545345999976, "NAICS_CODE": "611310", "NAICS_DESC": "COLLEGES, UNIVERSITIES, AND PROFESSIONAL SCHOOLS", "SOURCE": "https://nces.ed.gov/collegenavigator/?id=199698", "SOURCEDATE": "2009-10-13T00:00:00Z", "VAL_METHOD": "IMAGERY/OTHER", "VAL_DATE": "2016-06-29T00:00:00Z", "WEBSITE": "www.sa.edu/", "STFIPS": "37", "COFIPS": "165", "SECTOR": "2", "LEVEL_": "1", "HI_OFFER": "20", "DEG_GRANT": "1", "LOCALE": "32", "CLOSE_DATE": "-2", "MERGE_ID": "-2", "ALIAS": "SAU", "SIZE_SET": "22", "INST_SIZE": "1", "PT_ENROLL": 59, "FT_ENROLL": 828, "TOT_ENROLL": 887, "HOUSING": "1", "DORM_CAP": 628, "TOT_EMP": 299, "SHELTER_ID": "NOT AVAILABLE" }, "geometry": { "type": "Point", "coordinates": [ -79.478545345999976, 34.745643422000057 ] } },
{ "type": "Feature", "properties": { "OBJECTID": 2852, "IPEDSID": "199838", "NAME": "VANCE-GRANVILLE COMMUNITY COLLEGE", "ADDRESS": "200 COMMUNITY COLLEGE ROAD", "CITY": "HENDERSON", "STATE": "NC", "ZIP": "27537", "ZIP4": "NOT AVAILABLE", "TELEPHONE": "(252) 492-2061", "TYPE": "1", "STATUS": "A", "POPULATION": 3350, "COUNTY": "VANCE", "COUNTYFIPS": "37181", "COUNTRY": "USA", "LATITUDE": 36.32449802800005, "LONGITUDE": -78.488413658999946, "NAICS_CODE": "611210", "NAICS_DESC": "JUNIOR COLLEGES", "SOURCE": "https://nces.ed.gov/collegenavigator/?id=199838", "SOURCEDATE": "2009-10-13T00:00:00Z", "VAL_METHOD": "IMAGERY", "VAL_DATE": "2015-10-27T00:00:00Z", "WEBSITE": "www.vgcc.edu/", "STFIPS": "37", "COFIPS": "181", "SECTOR": "4", "LEVEL_": "2", "HI_OFFER": "40", "DEG_GRANT": "1", "LOCALE": "32", "CLOSE_DATE": "-2", "MERGE_ID": "-2", "ALIAS": "NOT AVAILABLE", "SIZE_SET": "4", "INST_SIZE": "2", "PT_ENROLL": 2158, "FT_ENROLL": 805, "TOT_ENROLL": 2963, "HOUSING": "2", "DORM_CAP": -999, "TOT_EMP": 387, "SHELTER_ID": "NOT AVAILABLE" }, "geometry": { "type": "Point", "coordinates": [ -78.488413658999946, 36.32449802800005 ] } },
{ "type": "Feature", "properties": { "OBJECTID": 2853, "IPEDSID": "413972", "NAME": "MITCHELLS ACADEMY", "ADDRESS": "1301 BUCK JONES RD", "CITY": "RALEIGH", "STATE": "NC", "ZIP": "27606", "ZIP4": "NOT AVAILABLE", "TELEPHONE": "(919) 469-5807", "TYPE": "3", "STATUS": "A", "POPULATION": 26, "COUNTY": "WAKE", "COUNTYFIPS": "37183", "COUNTRY": "USA", "LATITUDE": 35.76465191300008, "LONGITUDE": -78.742437736999989, "NAICS_CODE": "611511", "NAICS_DESC": "COSMETOLOGY AND BARBER SCHOOLS", "SOURCE": "https://nces.ed.gov/collegenavigator/?id=413972", "SOURCEDATE": "2009-10-13T00:00:00Z", "VAL_METHOD": "IMAGERY/OTHER", "VAL_DATE": "2016-06-29T00:00:00Z", "WEBSITE": "www.mitchells.edu/", "STFIPS": "37", "COFIPS": "183", "SECTOR": "9", "LEVEL_": "1", "HI_OFFER": "0", "DEG_GRANT": "2", "LOCALE": "12", "CLOSE_DATE": "-2", "MERGE_ID": "-2", "ALIAS": "MITCHELL'S HAIR STYLING ACADEMY", "SIZE_SET": "-2", "INST_SIZE": "1", "PT_ENROLL": -999, "FT_ENROLL": 20, "TOT_ENROLL": 20, "HOUSING": "2", "DORM_CAP": -999, "TOT_EMP": 6, "SHELTER_ID": "NOT AVAILABLE" }, "geometry": { "type": "Point", "coordinates": [ -78.742437736999989, 35.76465191300008 ] } },
{ "type": "Feature", "properties": { "OBJECTID": 2866, "IPEDSID": "199184", "NAME": "UNIVERSITY OF NORTH CAROLINA SCHOOL OF THE ARTS", "ADDRESS": "1533 SOUTH MAIN ST.", "CITY": "WINSTON SALEM", "STATE": "NC", "ZIP": "27127", "ZIP4": "2738", "TELEPHONE": "(336) 770-3399", "TYPE": "1", "STATUS": "A", "POPULATION": 1586, "COUNTY": "FORSYTH", "COUNTYFIPS": "37067", "COUNTRY": "USA", "LATITUDE": 36.074191056000075, "LONGITUDE": -80.236528247999956, "NAICS_CODE": "611310", "NAICS_DESC": "COLLEGES, UNIVERSITIES, AND PROFESSIONAL SCHOOLS", "SOURCE": "https://nces.ed.gov/collegenavigator/?id=199184", "SOURCEDATE": "2009-12-10T00:00:00Z", "VAL_METHOD": "IMAGERY/OTHER", "VAL_DATE": "2015-11-03T00:00:00Z", "WEBSITE": "www.uncsa.edu/", "STFIPS": "37", "COFIPS": "067", "SECTOR": "1", "LEVEL_": "1", "HI_OFFER": "20", "DEG_GRANT": "1", "LOCALE": "12", "CLOSE_DATE": "-2", "MERGE_ID": "-2", "ALIAS": "UNCSA", "SIZE_SET": "30", "INST_SIZE": "2", "PT_ENROLL": 32, "FT_ENROLL": 1038, "TOT_ENROLL": 1070, "HOUSING": "1", "DORM_CAP": 536, "TOT_EMP": 516, "SHELTER_ID": "NOT AVAILABLE" }, "geometry": { "type": "Point", "coordinates": [ -80.236528247999956, 36.074191056000075 ] } },
{ "type": "Feature", "properties": { "OBJECTID": 2867, "IPEDSID": "198385", "NAME": "DAVIDSON COLLEGE", "ADDRESS": "405 N. MAIN STREET", "CITY": "DAVIDSON", "STATE": "NC", "ZIP": "28035", "ZIP4": "NOT AVAILABLE", "TELEPHONE": "(704) 894-2000", "TYPE": "2", "STATUS": "A", "POPULATION": 2910, "COUNTY": "MECKLENBURG", "COUNTYFIPS": "37119", "COUNTRY": "USA", "LATITUDE": 35.500006384000073, "LONGITUDE": -80.845235827999943, "NAICS_CODE": "611310", "NAICS_DESC": "COLLEGES, UNIVERSITIES, AND PROFESSIONAL SCHOOLS", "SOURCE": "https://nces.ed.gov/collegenavigator/?id=198385", "SOURCEDATE": "2009-10-13T00:00:00Z", "VAL_METHOD": "IMAGERY", "VAL_DATE": "2016-07-07T00:00:00Z", "WEBSITE": "https://davidson.edu/", "STFIPS": "37", "COFIPS": "119", "SECTOR": "2", "LEVEL_": "1", "HI_OFFER": "30", "DEG_GRANT": "1", "LOCALE": "21", "CLOSE_DATE": "-2", "MERGE_ID": "-2", "ALIAS": "NOT AVAILABLE", "SIZE_SET": "21", "INST_SIZE": "2", "PT_ENROLL": -999, "FT_ENROLL": 1983, "TOT_ENROLL": 1983, "HOUSING": "1", "DORM_CAP": 1770, "TOT_EMP": 927, "SHELTER_ID": "NOT AVAILABLE" }, "geometry": { "type": "Point", "coordinates": [ -80.845235827999943, 35.500006384000073 ] } },
{ "type": "Feature", "properties": { "OBJECTID": 3009, "IPEDSID": "198695", "NAME": "HIGH POINT UNIVERSITY", "ADDRESS": "ONE UNIVERSITY PARKWAY", "CITY": "HIGH POINT", "STATE": "NC", "ZIP": "27268", "ZIP4": "NOT AVAILABLE", "TELEPHONE": "(336) 841-9000", "TYPE": "2", "STATUS": "A", "POPULATION": 6596, "COUNTY": "GUILFORD", "COUNTYFIPS": "37081", "COUNTRY": "USA", "LATITUDE": 35.97300223600007, "LONGITUDE": -79.994430785999953, "NAICS_CODE": "611310", "NAICS_DESC": "COLLEGES, UNIVERSITIES, AND PROFESSIONAL SCHOOLS", "SOURCE": "https://nces.ed.gov/collegenavigator/?id=198695", "SOURCEDATE": "2009-12-10T00:00:00Z", "VAL_METHOD": "IMAGERY/OTHER", "VAL_DATE": "2016-06-07T00:00:00Z", "WEBSITE": "www.highpoint.edu/", "STFIPS": "37", "COFIPS": "081", "SECTOR": "2", "LEVEL_": "3", "HI_OFFER": "11", "DEG_GRANT": "1", "LOCALE": "12", "CLOSE_DATE": "-2", "MERGE_ID": "-2", "ALIAS": "HPU", "SIZE_SET": "22", "INST_SIZE": "3", "PT_ENROLL": 89, "FT_ENROLL": 5528, "TOT_ENROLL": 5617, "HOUSING": "1", "DORM_CAP": 4741, "TOT_EMP": 979, "SHELTER_ID": "NOT AVAILABLE" }, "geometry": { "type": "Point", "coordinates": [ -79.994430785999953, 35.97300223600007 ] } },
{ "type": "Feature", "properties": { "OBJECTID": 3010, "IPEDSID": "199962", "NAME": "WINGATE UNIVERSITY", "ADDRESS": "301 E. WILSON STREET", "CITY": "WINGATE", "STATE": "NC", "ZIP": "28174", "ZIP4": "0159", "TELEPHONE": "(704) 233-8000", "TYPE": "2", "STATUS": "A", "POPULATION": 4400, "COUNTY": "UNION", "COUNTYFIPS": "37179", "COUNTRY": "USA", "LATITUDE": 34.985877951000077, "LONGITUDE": -80.446661769999935, "NAICS_CODE": "611310", "NAICS_DESC": "COLLEGES, UNIVERSITIES, AND PROFESSIONAL SCHOOLS", "SOURCE": "https://nces.ed.gov/collegenavigator/?id=199962", "SOURCEDATE": "2009-12-10T00:00:00Z", "VAL_METHOD": "IMAGERY/OTHER", "VAL_DATE": "2015-10-15T00:00:00Z", "WEBSITE": "https://www.wingate.edu/", "STFIPS": "37", "COFIPS": "179", "SECTOR": "2", "LEVEL_": "3", "HI_OFFER": "11", "DEG_GRANT": "1", "LOCALE": "21", "CLOSE_DATE": "-2", "MERGE_ID": "-2", "ALIAS": "NOT AVAILABLE", "SIZE_SET": "19", "INST_SIZE": "2", "PT_ENROLL": 291, "FT_ENROLL": 3362, "TOT_ENROLL": 3653, "HOUSING": "1", "DORM_CAP": 2100, "TOT_EMP": 747, "SHELTER_ID": "NOT AVAILABLE" }, "geometry": { "type": "Point", "coordinates": [ -80.446661769999935, 34.985877951000077 ] } },
{ "type": "Feature", "properties": { "OBJECTID": 3175, "IPEDSID": "494764", "NAME": "AVIATION INSTITUTE OF MAINTENANCE-CHARLOTTE", "ADDRESS": "7421 E. INDEPENDENCE BOULEVARD", "CITY": "CHARLOTTE", "STATE": "NC", "ZIP": "28227", "ZIP4": "9403", "TELEPHONE": "(980) 785-0700", "TYPE": "3", "STATUS": "A", "POPULATION": 215, "COUNTY": "MECKLENBURG", "COUNTYFIPS": "37119", "COUNTRY": "USA", "LATITUDE": 35.161941, "LONGITUDE": -80.736311, "NAICS_CODE": "611210", "NAICS_DESC": "JUNIOR COLLEGES", "SOURCE": "https://nces.ed.gov/collegenavigator/?id=494764", "SOURCEDATE": "2020-11-03T00:00:00Z", "VAL_METHOD": "IMAGERY/OTHER", "VAL_DATE": "2020-11-03T00:00:00Z", "WEBSITE": "https://www.aviationmaintenance.edu/campuses/charlotte-nc/index.html", "STFIPS": "37", "COFIPS": "119", "SECTOR": "6", "LEVEL_": "1", "HI_OFFER": "0", "DEG_GRANT": "2", "LOCALE": "11", "CLOSE_DATE": "-2", "MERGE_ID": "-2", "ALIAS": "NOT AVAILABLE", "SIZE_SET": "-2", "INST_SIZE": "1", "PT_ENROLL": 20, "FT_ENROLL": 165, "TOT_ENROLL": 185, "HOUSING": "2", "DORM_CAP": -999, "TOT_EMP": 30, "SHELTER_ID": "NOT AVAILABLE" }, "geometry": { "type": "Point", "coordinates": [ -80.736311, 35.161941 ] } },
{ "type": "Feature", "properties": { "OBJECTID": 3267, "IPEDSID": "199980", "NAME": "WINSTON SALEM BARBER SCHOOL", "ADDRESS": "1531 SILAS CREEK PKY", "CITY": "WINSTON-SALEM", "STATE": "NC", "ZIP": "27127", "ZIP4": "NOT AVAILABLE", "TELEPHONE": "(336) 763-4740", "TYPE": "3", "STATUS": "A", "POPULATION": 45, "COUNTY": "FORSYTH", "COUNTYFIPS": "37067", "COUNTRY": "USA", "LATITUDE": 36.067154569000024, "LONGITUDE": -80.260540724999942, "NAICS_CODE": "611511", "NAICS_DESC": "COSMETOLOGY AND BARBER SCHOOLS", "SOURCE": "https://nces.ed.gov/collegenavigator/?id=199980", "SOURCEDATE": "2009-10-13T00:00:00Z", "VAL_METHOD": "IMAGERY/OTHER", "VAL_DATE": "2015-10-15T00:00:00Z", "WEBSITE": "www.wsbarberschool.com/", "STFIPS": "37", "COFIPS": "067", "SECTOR": "9", "LEVEL_": "2", "HI_OFFER": "0", "DEG_GRANT": "2", "LOCALE": "12", "CLOSE_DATE": "-2", "MERGE_ID": "-2", "ALIAS": "NOT AVAILABLE", "SIZE_SET": "-2", "INST_SIZE": "1", "PT_ENROLL": -999, "FT_ENROLL": 34, "TOT_ENROLL": 34, "HOUSING": "2", "DORM_CAP": -999, "TOT_EMP": 11, "SHELTER_ID": "NOT AVAILABLE" }, "geometry": { "type": "Point", "coordinates": [ -80.260540724999942, 36.067154569000024 ] } },
{ "type": "Feature", "properties": { "OBJECTID": 3295, "IPEDSID": "459019", "NAME": "EMPIRE BEAUTY SCHOOL-CHARLOTTE", "ADDRESS": "4901-B N TRYON ST", "CITY": "CHARLOTTE", "STATE": "NC", "ZIP": "28213", "ZIP4": "NOT AVAILABLE", "TELEPHONE": "(800) 920-4593", "TYPE": "3", "STATUS": "A", "POPULATION": 84, "COUNTY": "MECKLENBURG", "COUNTYFIPS": "37119", "COUNTRY": "USA", "LATITUDE": 35.258559124000044, "LONGITUDE": -80.783744694999939, "NAICS_CODE": "611511", "NAICS_DESC": "COSMETOLOGY AND BARBER SCHOOLS", "SOURCE": "https://nces.ed.gov/collegenavigator/?id=459019", "SOURCEDATE": "2013-06-25T00:00:00Z", "VAL_METHOD": "IMAGERY/OTHER", "VAL_DATE": "2016-05-25T00:00:00Z", "WEBSITE": "www.empire.edu/", "STFIPS": "37", "COFIPS": "119", "SECTOR": "9", "LEVEL_": "2", "HI_OFFER": "0", "DEG_GRANT": "2", "LOCALE": "11", "CLOSE_DATE": "-2", "MERGE_ID": "-2", "ALIAS": "NOT AVAILABLE", "SIZE_SET": "-2", "INST_SIZE": "1", "PT_ENROLL": 19, "FT_ENROLL": 58, "TOT_ENROLL": 77, "HOUSING": "2", "DORM_CAP": -999, "TOT_EMP": 7, "SHELTER_ID": "NOT AVAILABLE" }, "geometry": { "type": "Point", "coordinates": [ -80.783744694999939, 35.258559124000044 ] } },
{ "type": "Feature", "properties": { "OBJECTID": 3296, "IPEDSID": "459046", "NAME": "EMPIRE BEAUTY SCHOOL-WINSTON-SALEM", "ADDRESS": "7740 N POINT BLVD", "CITY": "WINSTON-SALEM", "STATE": "NC", "ZIP": "27106", "ZIP4": "NOT AVAILABLE", "TELEPHONE": "(800) 920-4593", "TYPE": "3", "STATUS": "A", "POPULATION": 77, "COUNTY": "FORSYTH", "COUNTYFIPS": "37067", "COUNTRY": "USA", "LATITUDE": 36.151383090000024, "LONGITUDE": -80.284787241999936, "NAICS_CODE": "611511", "NAICS_DESC": "COSMETOLOGY AND BARBER SCHOOLS", "SOURCE": "https://nces.ed.gov/collegenavigator/?id=459046", "SOURCEDATE": "2013-06-25T00:00:00Z", "VAL_METHOD": "GEOCODE", "VAL_DATE": "2016-05-25T00:00:00Z", "WEBSITE": "www.empire.edu/", "STFIPS": "37", "COFIPS": "067", "SECTOR": "9", "LEVEL_": "2", "HI_OFFER": "0", "DEG_GRANT": "2", "LOCALE": "12", "CLOSE_DATE": "-2", "MERGE_ID": "-2", "ALIAS": "NOT AVAILABLE", "SIZE_SET": "-2", "INST_SIZE": "1", "PT_ENROLL": 21, "FT_ENROLL": 49, "TOT_ENROLL": 70, "HOUSING": "2", "DORM_CAP": -999, "TOT_EMP": 7, "SHELTER_ID": "NOT AVAILABLE" }, "geometry": { "type": "Point", "coordinates": [ -80.284787241999936, 36.151383090000024 ] } },
{ "type": "Feature", "properties": { "OBJECTID": 3364, "IPEDSID": "199175", "NAME": "UNIVERSITY OF NORTH CAROLINA SYSTEM", "ADDRESS": "910 RALEIGH RD", "CITY": "CHAPEL HILL", "STATE": "NC", "ZIP": "27514", "ZIP4": "NOT AVAILABLE", "TELEPHONE": "(919) 962-1000", "TYPE": "1", "STATUS": "A", "POPULATION": 456, "COUNTY": "ORANGE", "COUNTYFIPS": "37135", "COUNTRY": "USA", "LATITUDE": 35.909446, "LONGITUDE": -79.030578, "NAICS_CODE": "611710", "NAICS_DESC": "EDUCATIONAL SUPPORT SERVICES", "SOURCE": "https://nces.ed.gov/collegenavigator/?id=199175", "SOURCEDATE": "2009-10-13T00:00:00Z", "VAL_METHOD": "GEOCODE", "VAL_DATE": "2016-06-14T00:00:00Z", "WEBSITE": "www.northcarolina.edu/", "STFIPS": "37", "COFIPS": "135", "SECTOR": "0", "LEVEL_": "1", "HI_OFFER": "11", "DEG_GRANT": "1", "LOCALE": "13", "CLOSE_DATE": "-2", "MERGE_ID": "-2", "ALIAS": "UNC SYSTEM", "SIZE_SET": "-2", "INST_SIZE": "-2", "PT_ENROLL": -999, "FT_ENROLL": -999, "TOT_ENROLL": -999, "HOUSING": "-2", "DORM_CAP": -999, "TOT_EMP": 456, "SHELTER_ID": "NOT AVAILABLE" }, "geometry": { "type": "Point", "coordinates": [ -79.030578, 35.909446 ] } },
{ "type": "Feature", "properties": { "OBJECTID": 3430, "IPEDSID": "489937", "NAME": "CAROLINA UNIVERSITY", "ADDRESS": "420 S. BROAD ST.", "CITY": "WINSTON-SALEM", "STATE": "NC", "ZIP": "27101", "ZIP4": "NOT AVAILABLE", "TELEPHONE": "(336) 725-8344", "TYPE": "2", "STATUS": "A", "POPULATION": 1116, "COUNTY": "FORSYTH", "COUNTYFIPS": "37067", "COUNTRY": "USA", "LATITUDE": 36.087962, "LONGITUDE": -80.250153, "NAICS_CODE": "611310", "NAICS_DESC": "COLLEGES, UNIVERSITIES, AND PROFESSIONAL SCHOOLS", "SOURCE": "https://nces.ed.gov/collegenavigator/?id=489937", "SOURCEDATE": "2018-04-10T00:00:00Z", "VAL_METHOD": "IMAGERY/OTHER", "VAL_DATE": "2018-04-10T00:00:00Z", "WEBSITE": "https://www.carolinau.edu/", "STFIPS": "37", "COFIPS": "067", "SECTOR": "2", "LEVEL_": "2", "HI_OFFER": "11", "DEG_GRANT": "1", "LOCALE": "12", "CLOSE_DATE": "-2", "MERGE_ID": "-2", "ALIAS": "NOT AVAILABLE", "SIZE_SET": "24", "INST_SIZE": "1", "PT_ENROLL": 566, "FT_ENROLL": 385, "TOT_ENROLL": 951, "HOUSING": "1", "DORM_CAP": 215, "TOT_EMP": 165, "SHELTER_ID": "NOT AVAILABLE" }, "geometry": { "type": "Point", "coordinates": [ -80.250153, 36.087962 ] } },
{ "type": "Feature", "properties": { "OBJECTID": 3557, "IPEDSID": "198084", "NAME": "BRUNSWICK COMMUNITY COLLEGE", "ADDRESS": "50 COLLEGE RD", "CITY": "BOLIVIA", "STATE": "NC", "ZIP": "28422", "ZIP4": "9021", "TELEPHONE": "(910) 755-7300", "TYPE": "1", "STATUS": "A", "POPULATION": 2077, "COUNTY": "BRUNSWICK", "COUNTYFIPS": "37019", "COUNTRY": "USA", "LATITUDE": 34.038973, "LONGITUDE": -78.22979, "NAICS_CODE": "611210", "NAICS_DESC": "JUNIOR COLLEGES", "SOURCE": "https://nces.ed.gov/collegenavigator/?id=198084", "SOURCEDATE": "2009-12-31T00:00:00Z", "VAL_METHOD": "IMAGERY", "VAL_DATE": "2016-07-07T00:00:00Z", "WEBSITE": "www.brunswickcc.edu/", "STFIPS": "37", "COFIPS": "019", "SECTOR": "4", "LEVEL_": "3", "HI_OFFER": "40", "DEG_GRANT": "1", "LOCALE": "42", "CLOSE_DATE": "-2", "MERGE_ID": "-2", "ALIAS": "NOT AVAILABLE", "SIZE_SET": "1", "INST_SIZE": "2", "PT_ENROLL": 1066, "FT_ENROLL": 487, "TOT_ENROLL": 1553, "HOUSING": "2", "DORM_CAP": -999, "TOT_EMP": 524, "SHELTER_ID": "NOT AVAILABLE" }, "geometry": { "type": "Point", "coordinates": [ -78.22979, 34.038973 ] } },
{ "type": "Feature", "properties": { "OBJECTID": 3558, "IPEDSID": "198455", "NAME": "DURHAM TECHNICAL COMMUNITY COLLEGE", "ADDRESS": "1637 LAWSON STREET", "CITY": "DURHAM", "STATE": "NC", "ZIP": "27703", "ZIP4": "5023", "TELEPHONE": "(919) 536-7200", "TYPE": "1", "STATUS": "A", "POPULATION": 5474, "COUNTY": "DURHAM", "COUNTYFIPS": "37063", "COUNTRY": "USA", "LATITUDE": 35.975201703000039, "LONGITUDE": -78.880735268999956, "NAICS_CODE": "611210", "NAICS_DESC": "JUNIOR COLLEGES", "SOURCE": "https://nces.ed.gov/collegenavigator/?id=198455", "SOURCEDATE": "2009-10-13T00:00:00Z", "VAL_METHOD": "IMAGERY", "VAL_DATE": "2016-07-07T00:00:00Z", "WEBSITE": "www.durhamtech.edu/", "STFIPS": "37", "COFIPS": "063", "SECTOR": "4", "LEVEL_": "3", "HI_OFFER": "40", "DEG_GRANT": "1", "LOCALE": "11", "CLOSE_DATE": "-2", "MERGE_ID": "-2", "ALIAS": "NOT AVAILABLE", "SIZE_SET": "2", "INST_SIZE": "2", "PT_ENROLL": 3806, "FT_ENROLL": 866, "TOT_ENROLL": 4672, "HOUSING": "2", "DORM_CAP": -999, "TOT_EMP": 802, "SHELTER_ID": "NOT AVAILABLE" }, "geometry": { "type": "Point", "coordinates": [ -78.880735268999956, 35.975201703000039 ] } },
{ "type": "Feature", "properties": { "OBJECTID": 3559, "IPEDSID": "198561", "NAME": "GARDNER-WEBB UNIVERSITY", "ADDRESS": "MAIN ST", "CITY": "BOILING SPRINGS", "STATE": "NC", "ZIP": "28017", "ZIP4": "0997", "TELEPHONE": "(704) 406-2361", "TYPE": "2", "STATUS": "A", "POPULATION": 4166, "COUNTY": "CLEVELAND", "COUNTYFIPS": "37045", "COUNTRY": "USA", "LATITUDE": 35.24732, "LONGITUDE": -81.668141, "NAICS_CODE": "611310", "NAICS_DESC": "COLLEGES, UNIVERSITIES, AND PROFESSIONAL SCHOOLS", "SOURCE": "https://nces.ed.gov/collegenavigator/?id=198561", "SOURCEDATE": "2009-12-31T00:00:00Z", "VAL_METHOD": "IMAGERY", "VAL_DATE": "2016-06-03T00:00:00Z", "WEBSITE": "www.gardner-webb.edu/", "STFIPS": "37", "COFIPS": "045", "SECTOR": "2", "LEVEL_": "3", "HI_OFFER": "12", "DEG_GRANT": "1", "LOCALE": "32", "CLOSE_DATE": "-2", "MERGE_ID": "-2", "ALIAS": "GWU", "SIZE_SET": "17", "INST_SIZE": "2", "PT_ENROLL": 1391, "FT_ENROLL": 2145, "TOT_ENROLL": 3536, "HOUSING": "1", "DORM_CAP": 1368, "TOT_EMP": 630, "SHELTER_ID": "NOT AVAILABLE" }, "geometry": { "type": "Point", "coordinates": [ -81.668141, 35.24732 ] } },
{ "type": "Feature", "properties": { "OBJECTID": 3560, "IPEDSID": "198710", "NAME": "ISOTHERMAL COMMUNITY COLLEGE", "ADDRESS": "286 ICC LOOP ROAD", "CITY": "SPINDALE", "STATE": "NC", "ZIP": "28160", "ZIP4": "0804", "TELEPHONE": "(828) 286-3636", "TYPE": "1", "STATUS": "A", "POPULATION": 2427, "COUNTY": "RUTHERFORD", "COUNTYFIPS": "37161", "COUNTRY": "USA", "LATITUDE": 35.336727502000031, "LONGITUDE": -81.911857167999983, "NAICS_CODE": "611210", "NAICS_DESC": "JUNIOR COLLEGES", "SOURCE": "https://nces.ed.gov/collegenavigator/?id=198710", "SOURCEDATE": "2009-12-31T00:00:00Z", "VAL_METHOD": "IMAGERY/OTHER", "VAL_DATE": "2016-07-07T00:00:00Z", "WEBSITE": "https://www.isothermal.edu/", "STFIPS": "37", "COFIPS": "161", "SECTOR": "4", "LEVEL_": "2", "HI_OFFER": "40", "DEG_GRANT": "1", "LOCALE": "32", "CLOSE_DATE": "-2", "MERGE_ID": "-2", "ALIAS": "ICC ISOTHERMAL", "SIZE_SET": "9", "INST_SIZE": "2", "PT_ENROLL": 1326, "FT_ENROLL": 716, "TOT_ENROLL": 2042, "HOUSING": "2", "DORM_CAP": -999, "TOT_EMP": 385, "SHELTER_ID": "NOT AVAILABLE" }, "geometry": { "type": "Point", "coordinates": [ -81.911857167999983, 35.336727502000031 ] } },
{ "type": "Feature", "properties": { "OBJECTID": 3569, "IPEDSID": "198914", "NAME": "MAYLAND COMMUNITY COLLEGE", "ADDRESS": "200 MAYLAND DRIVE", "CITY": "SPRUCE PINE", "STATE": "NC", "ZIP": "28777", "ZIP4": "NOT AVAILABLE", "TELEPHONE": "(828) 765-7351", "TYPE": "1", "STATUS": "A", "POPULATION": 696, "COUNTY": "AVERY", "COUNTYFIPS": "37011", "COUNTRY": "USA", "LATITUDE": 35.934474971000043, "LONGITUDE": -82.016987673999949, "NAICS_CODE": "611210", "NAICS_DESC": "JUNIOR COLLEGES", "SOURCE": "https://nces.ed.gov/collegenavigator/?id=198914", "SOURCEDATE": "2009-10-13T00:00:00Z", "VAL_METHOD": "IMAGERY", "VAL_DATE": "2016-07-07T00:00:00Z", "WEBSITE": "www.mayland.edu/", "STFIPS": "37", "COFIPS": "011", "SECTOR": "4", "LEVEL_": "2", "HI_OFFER": "40", "DEG_GRANT": "1", "LOCALE": "32", "CLOSE_DATE": "-2", "MERGE_ID": "-2", "ALIAS": "NOT AVAILABLE", "SIZE_SET": "6", "INST_SIZE": "1", "PT_ENROLL": 222, "FT_ENROLL": 219, "TOT_ENROLL": 441, "HOUSING": "2", "DORM_CAP": -999, "TOT_EMP": 255, "SHELTER_ID": "NOT AVAILABLE" }, "geometry": { "type": "Point", "coordinates": [ -82.016987673999949, 35.934474971000043 ] } },
{ "type": "Feature", "properties": { "OBJECTID": 3572, "IPEDSID": "199768", "NAME": "SURRY COMMUNITY COLLEGE", "ADDRESS": "630 S. MAIN ST.", "CITY": "DOBSON", "STATE": "NC", "ZIP": "27017", "ZIP4": "8432", "TELEPHONE": "(336) 386-8121 EXT 3264", "TYPE": "1", "STATUS": "A", "POPULATION": 3578, "COUNTY": "SURRY", "COUNTYFIPS": "37171", "COUNTRY": "USA", "LATITUDE": 36.384333902000037, "LONGITUDE": -80.716834135999989, "NAICS_CODE": "611210", "NAICS_DESC": "JUNIOR COLLEGES", "SOURCE": "https://nces.ed.gov/collegenavigator/?id=199768", "SOURCEDATE": "2009-10-13T00:00:00Z", "VAL_METHOD": "IMAGERY/OTHER", "VAL_DATE": "2016-07-07T00:00:00Z", "WEBSITE": "https://surry.edu/", "STFIPS": "37", "COFIPS": "171", "SECTOR": "4", "LEVEL_": "1", "HI_OFFER": "40", "DEG_GRANT": "1", "LOCALE": "42", "CLOSE_DATE": "-2", "MERGE_ID": "-2", "ALIAS": "NOT AVAILABLE", "SIZE_SET": "5", "INST_SIZE": "2", "PT_ENROLL": 2034, "FT_ENROLL": 1069, "TOT_ENROLL": 3103, "HOUSING": "2", "DORM_CAP": -999, "TOT_EMP": 475, "SHELTER_ID": "10779946" }, "geometry": { "type": "Point", "coordinates": [ -80.716834135999989, 36.384333902000037 ] } },
{ "type": "Feature", "properties": { "OBJECTID": 3573, "IPEDSID": "199786", "NAME": "ALAMANCE COMMUNITY COLLEGE", "ADDRESS": "1247 JIMMIE KERR ROAD", "CITY": "GRAHAM", "STATE": "NC", "ZIP": "27253", "ZIP4": "8000", "TELEPHONE": "(336) 578-2002", "TYPE": "1", "STATUS": "A", "POPULATION": 4699, "COUNTY": "ALAMANCE", "COUNTYFIPS": "37001", "COUNTRY": "USA", "LATITUDE": 36.066683, "LONGITUDE": -79.357657, "NAICS_CODE": "611210", "NAICS_DESC": "JUNIOR COLLEGES", "SOURCE": "https://nces.ed.gov/collegenavigator/?id=199786", "SOURCEDATE": "2009-12-31T00:00:00Z", "VAL_METHOD": "IMAGERY", "VAL_DATE": "2016-07-07T00:00:00Z", "WEBSITE": "www.alamancecc.edu/", "STFIPS": "37", "COFIPS": "001", "SECTOR": "4", "LEVEL_": "3", "HI_OFFER": "40", "DEG_GRANT": "1", "LOCALE": "41", "CLOSE_DATE": "-2", "MERGE_ID": "-2", "ALIAS": "ACC | TECHNICAL INSTITUTE OF ALAMANCE | ALAMANCE COLLEGE |", "SIZE_SET": "5", "INST_SIZE": "2", "PT_ENROLL": 2685, "FT_ENROLL": 1352, "TOT_ENROLL": 4037, "HOUSING": "2", "DORM_CAP": -999, "TOT_EMP": 662, "SHELTER_ID": "NOT AVAILABLE" }, "geometry": { "type": "Point", "coordinates": [ -79.357657, 36.066683 ] } },
{ "type": "Feature", "properties": { "OBJECTID": 3574, "IPEDSID": "199795", "NAME": "TRI-COUNTY COMMUNITY COLLEGE", "ADDRESS": "21 CAMPUS CIRCLE", "CITY": "MURPHY", "STATE": "NC", "ZIP": "28906", "ZIP4": "NOT AVAILABLE", "TELEPHONE": "(828) 837-6810", "TYPE": "1", "STATUS": "A", "POPULATION": 1228, "COUNTY": "CHEROKEE", "COUNTYFIPS": "37039", "COUNTRY": "USA", "LATITUDE": 35.067020930000069, "LONGITUDE": -83.966475590999949, "NAICS_CODE": "611210", "NAICS_DESC": "JUNIOR COLLEGES", "SOURCE": "https://nces.ed.gov/collegenavigator/?id=199795", "SOURCEDATE": "2009-12-31T00:00:00Z", "VAL_METHOD": "IMAGERY", "VAL_DATE": "2016-07-07T00:00:00Z", "WEBSITE": "www.tricountycc.edu/", "STFIPS": "37", "COFIPS": "039", "SECTOR": "4", "LEVEL_": "1", "HI_OFFER": "40", "DEG_GRANT": "1", "LOCALE": "43", "CLOSE_DATE": "-2", "MERGE_ID": "-2", "ALIAS": "NOT AVAILABLE", "SIZE_SET": "3", "INST_SIZE": "1", "PT_ENROLL": 564, "FT_ENROLL": 427, "TOT_ENROLL": 991, "HOUSING": "2", "DORM_CAP": -999, "TOT_EMP": 237, "SHELTER_ID": "NOT AVAILABLE" }, "geometry": { "type": "Point", "coordinates": [ -83.966475590999949, 35.067020930000069 ] } },
{ "type": "Feature", "properties": { "OBJECTID": 3575, "IPEDSID": "199908", "NAME": "WESTERN PIEDMONT COMMUNITY COLLEGE", "ADDRESS": "1001 BURKEMONT AVE", "CITY": "MORGANTON", "STATE": "NC", "ZIP": "28655", "ZIP4": "4511", "TELEPHONE": "(828) 448-3500", "TYPE": "1", "STATUS": "A", "POPULATION": 2165, "COUNTY": "BURKE", "COUNTYFIPS": "37023", "COUNTRY": "USA", "LATITUDE": 35.722875542000054, "LONGITUDE": -81.687344792999966, "NAICS_CODE": "611210", "NAICS_DESC": "JUNIOR COLLEGES", "SOURCE": "https://nces.ed.gov/collegenavigator/?id=199908", "SOURCEDATE": "2009-10-13T00:00:00Z", "VAL_METHOD": "IMAGERY", "VAL_DATE": "2016-07-07T00:00:00Z", "WEBSITE": "https://www.wpcc.edu/", "STFIPS": "37", "COFIPS": "023", "SECTOR": "4", "LEVEL_": "1", "HI_OFFER": "40", "DEG_GRANT": "1", "LOCALE": "13", "CLOSE_DATE": "-2", "MERGE_ID": "-2", "ALIAS": "WPCC", "SIZE_SET": "5", "INST_SIZE": "2", "PT_ENROLL": 1197, "FT_ENROLL": 595, "TOT_ENROLL": 1792, "HOUSING": "2", "DORM_CAP": -999, "TOT_EMP": 373, "SHELTER_ID": "NOT AVAILABLE" }, "geometry": { "type": "Point", "coordinates": [ -81.687344792999966, 35.722875542000054 ] } },
{ "type": "Feature", "properties": { "OBJECTID": 3587, "IPEDSID": "198260", "NAME": "CENTRAL PIEDMONT COMMUNITY COLLEGE", "ADDRESS": "1201 ELIZABETH AVENUE", "CITY": "CHARLOTTE", "STATE": "NC", "ZIP": "28204", "ZIP4": "NOT AVAILABLE", "TELEPHONE": "(704) 330-2722", "TYPE": "1", "STATUS": "A", "POPULATION": 19271, "COUNTY": "MECKLENBURG", "COUNTYFIPS": "37119", "COUNTRY": "USA", "LATITUDE": 35.217774442000064, "LONGITUDE": -80.829795890999947, "NAICS_CODE": "611210", "NAICS_DESC": "JUNIOR COLLEGES", "SOURCE": "https://nces.ed.gov/collegenavigator/?id=198260", "SOURCEDATE": "2009-12-10T00:00:00Z", "VAL_METHOD": "IMAGERY", "VAL_DATE": "2016-07-07T00:00:00Z", "WEBSITE": "www.cpcc.edu/", "STFIPS": "37", "COFIPS": "119", "SECTOR": "4", "LEVEL_": "3", "HI_OFFER": "40", "DEG_GRANT": "1", "LOCALE": "11", "CLOSE_DATE": "-2", "MERGE_ID": "-2", "ALIAS": "NOT AVAILABLE", "SIZE_SET": "2", "INST_SIZE": "4", "PT_ENROLL": 10301, "FT_ENROLL": 6367, "TOT_ENROLL": 16668, "HOUSING": "2", "DORM_CAP": -999, "TOT_EMP": 2603, "SHELTER_ID": "NOT AVAILABLE" }, "geometry": { "type": "Point", "coordinates": [ -80.829795890999947, 35.217774442000064 ] } },
{ "type": "Feature", "properties": { "OBJECTID": 3589, "IPEDSID": "458405", "NAME": "PLATT COLLEGE-MILLER-MOTTE-FAYETTEVILLE", "ADDRESS": "3725 RAMSEY ST.", "CITY": "FAYETTEVILLE", "STATE": "NC", "ZIP": "28311", "ZIP4": "NOT AVAILABLE", "TELEPHONE": "(910) 354-1900", "TYPE": "3", "STATUS": "A", "POPULATION": 290, "COUNTY": "CUMBERLAND", "COUNTYFIPS": "37051", "COUNTRY": "USA", "LATITUDE": 35.111355609000043, "LONGITUDE": -78.881630695999945, "NAICS_CODE": "611210", "NAICS_DESC": "JUNIOR COLLEGES", "SOURCE": "https://nces.ed.gov/collegenavigator/?id=458405", "SOURCEDATE": "2013-06-25T00:00:00Z", "VAL_METHOD": "IMAGERY/OTHER", "VAL_DATE": "2016-05-24T00:00:00Z", "WEBSITE": "https://www.miller-motte.edu/", "STFIPS": "37", "COFIPS": "051", "SECTOR": "6", "LEVEL_": "3", "HI_OFFER": "40", "DEG_GRANT": "1", "LOCALE": "12", "CLOSE_DATE": "-2", "MERGE_ID": "-2", "ALIAS": "NOT AVAILABLE", "SIZE_SET": "9", "INST_SIZE": "1", "PT_ENROLL": 7, "FT_ENROLL": 252, "TOT_ENROLL": 259, "HOUSING": "2", "DORM_CAP": -999, "TOT_EMP": 31, "SHELTER_ID": "NOT AVAILABLE" }, "geometry": { "type": "Point", "coordinates": [ -78.881630695999945, 35.111355609000043 ] } },
{ "type": "Feature", "properties": { "OBJECTID": 3624, "IPEDSID": "198376", "NAME": "DAVIDSON COUNTY COMMUNITY COLLEGE", "ADDRESS": "297 DCCC ROAD", "CITY": "THOMASVILLE", "STATE": "NC", "ZIP": "27360", "ZIP4": "7385", "TELEPHONE": "(336) 249-8186", "TYPE": "1", "STATUS": "A", "POPULATION": 4314, "COUNTY": "DAVIDSON", "COUNTYFIPS": "37057", "COUNTRY": "USA", "LATITUDE": 35.865470923000032, "LONGITUDE": -80.181867501999989, "NAICS_CODE": "611210", "NAICS_DESC": "JUNIOR COLLEGES", "SOURCE": "https://nces.ed.gov/collegenavigator/?id=198376", "SOURCEDATE": "2009-12-10T00:00:00Z", "VAL_METHOD": "IMAGERY/OTHER", "VAL_DATE": "2016-07-07T00:00:00Z", "WEBSITE": "www.davidsonccc.edu/", "STFIPS": "37", "COFIPS": "057", "SECTOR": "4", "LEVEL_": "1", "HI_OFFER": "40", "DEG_GRANT": "1", "LOCALE": "41", "CLOSE_DATE": "-2", "MERGE_ID": "-2", "ALIAS": "DCCC|DAVIDSON COUNTY COMMUNITY COLLEGE", "SIZE_SET": "4", "INST_SIZE": "2", "PT_ENROLL": 2228, "FT_ENROLL": 1537, "TOT_ENROLL": 3765, "HOUSING": "2", "DORM_CAP": -999, "TOT_EMP": 549, "SHELTER_ID": "NOT AVAILABLE" }, "geometry": { "type": "Point", "coordinates": [ -80.181867501999989, 35.865470923000032 ] } },
{ "type": "Feature", "properties": { "OBJECTID": 3703, "IPEDSID": "199467", "NAME": "ROANOKE-CHOWAN COMMUNITY COLLEGE", "ADDRESS": "109 COMMUNITY COLLEGE RD", "CITY": "AHOSKIE", "STATE": "NC", "ZIP": "27910", "ZIP4": "9522", "TELEPHONE": "(252) 862-1200", "TYPE": "1", "STATUS": "A", "POPULATION": 686, "COUNTY": "HERTFORD", "COUNTYFIPS": "37091", "COUNTRY": "USA", "LATITUDE": 36.324827190000065, "LONGITUDE": -77.023661912999955, "NAICS_CODE": "611210", "NAICS_DESC": "JUNIOR COLLEGES", "SOURCE": "https://nces.ed.gov/collegenavigator/?id=199467", "SOURCEDATE": "2009-10-13T00:00:00Z", "VAL_METHOD": "IMAGERY/OTHER", "VAL_DATE": "2016-06-14T00:00:00Z", "WEBSITE": "www.roanokechowan.edu/", "STFIPS": "37", "COFIPS": "091", "SECTOR": "4", "LEVEL_": "1", "HI_OFFER": "40", "DEG_GRANT": "1", "LOCALE": "41", "CLOSE_DATE": "-2", "MERGE_ID": "-2", "ALIAS": "R-CCC", "SIZE_SET": "4", "INST_SIZE": "1", "PT_ENROLL": 442, "FT_ENROLL": 83, "TOT_ENROLL": 525, "HOUSING": "2", "DORM_CAP": -999, "TOT_EMP": 161, "SHELTER_ID": "NOT AVAILABLE" }, "geometry": { "type": "Point", "coordinates": [ -77.023661912999955, 36.324827190000065 ] } },
{ "type": "Feature", "properties": { "OBJECTID": 3731, "IPEDSID": "460817", "NAME": "PLATT COLLEGE-MILLER-MOTTE-JACKSONVILLE", "ADDRESS": "105 NEW FRONTIER WAY", "CITY": "JACKSONVILLE", "STATE": "NC", "ZIP": "28546", "ZIP4": "NOT AVAILABLE", "TELEPHONE": "(910) 478-4300", "TYPE": "3", "STATUS": "A", "POPULATION": 271, "COUNTY": "ONSLOW", "COUNTYFIPS": "37133", "COUNTRY": "USA", "LATITUDE": 34.753413368000054, "LONGITUDE": -77.413978985999961, "NAICS_CODE": "611210", "NAICS_DESC": "JUNIOR COLLEGES", "SOURCE": "https://nces.ed.gov/collegenavigator/?id=460817", "SOURCEDATE": "2013-06-25T00:00:00Z", "VAL_METHOD": "IMAGERY/OTHER", "VAL_DATE": "2019-01-31T00:00:00Z", "WEBSITE": "https://www.miller-motte.edu/", "STFIPS": "37", "COFIPS": "133", "SECTOR": "6", "LEVEL_": "1", "HI_OFFER": "40", "DEG_GRANT": "1", "LOCALE": "13", "CLOSE_DATE": "-2", "MERGE_ID": "-2", "ALIAS": "NOT AVAILABLE", "SIZE_SET": "10", "INST_SIZE": "1", "PT_ENROLL": 2, "FT_ENROLL": 236, "TOT_ENROLL": 238, "HOUSING": "2", "DORM_CAP": -999, "TOT_EMP": 33, "SHELTER_ID": "NOT AVAILABLE" }, "geometry": { "type": "Point", "coordinates": [ -77.413978985999961, 34.753413368000054 ] } },
{ "type": "Feature", "properties": { "OBJECTID": 3742, "IPEDSID": "461485", "NAME": "SHEPHERDS THEOLOGICAL SEMINARY", "ADDRESS": "6051 TRYON ROAD", "CITY": "CARY", "STATE": "NC", "ZIP": "27518", "ZIP4": "9316", "TELEPHONE": "(919) 573-5350", "TYPE": "2", "STATUS": "A", "POPULATION": 161, "COUNTY": "WAKE", "COUNTYFIPS": "37183", "COUNTRY": "USA", "LATITUDE": 35.744333850000032, "LONGITUDE": -78.742623212999945, "NAICS_CODE": "611310", "NAICS_DESC": "COLLEGES, UNIVERSITIES, AND PROFESSIONAL SCHOOLS", "SOURCE": "https://nces.ed.gov/collegenavigator/?id=461485", "SOURCEDATE": "2013-06-25T00:00:00Z", "VAL_METHOD": "IMAGERY/OTHER", "VAL_DATE": "2016-05-27T00:00:00Z", "WEBSITE": "shepherds.edu/", "STFIPS": "37", "COFIPS": "183", "SECTOR": "2", "LEVEL_": "1", "HI_OFFER": "20", "DEG_GRANT": "1", "LOCALE": "12", "CLOSE_DATE": "-2", "MERGE_ID": "-2", "ALIAS": "NOT AVAILABLE", "SIZE_SET": "24", "INST_SIZE": "1", "PT_ENROLL": 88, "FT_ENROLL": 48, "TOT_ENROLL": 136, "HOUSING": "2", "DORM_CAP": -999, "TOT_EMP": 25, "SHELTER_ID": "NOT AVAILABLE" }, "geometry": { "type": "Point", "coordinates": [ -78.742623212999945, 35.744333850000032 ] } },
{ "type": "Feature", "properties": { "OBJECTID": 3958, "IPEDSID": "478616", "NAME": "EMPIRE BEAUTY SCHOOL-WEST GREENSBORO", "ADDRESS": "1312 BRIDFORD PARKWAY, SUITE 105", "CITY": "GREENSBORO", "STATE": "NC", "ZIP": "27407", "ZIP4": "2693", "TELEPHONE": "(800) 920-4593", "TYPE": "3", "STATUS": "A", "POPULATION": 115, "COUNTY": "GUILFORD", "COUNTYFIPS": "37081", "COUNTRY": "USA", "LATITUDE": 36.051587641000026, "LONGITUDE": -79.904320337999934, "NAICS_CODE": "611511", "NAICS_DESC": "COSMETOLOGY AND BARBER SCHOOLS", "SOURCE": "https://nces.ed.gov/collegenavigator/?id=478616", "SOURCEDATE": "2013-11-04T00:00:00Z", "VAL_METHOD": "IMAGERY/OTHER", "VAL_DATE": "2016-05-19T00:00:00Z", "WEBSITE": "www.empire.edu/", "STFIPS": "37", "COFIPS": "081", "SECTOR": "9", "LEVEL_": "2", "HI_OFFER": "0", "DEG_GRANT": "2", "LOCALE": "11", "CLOSE_DATE": "-2", "MERGE_ID": "-2", "ALIAS": "NOT AVAILABLE", "SIZE_SET": "-2", "INST_SIZE": "1", "PT_ENROLL": 36, "FT_ENROLL": 69, "TOT_ENROLL": 105, "HOUSING": "2", "DORM_CAP": -999, "TOT_EMP": 10, "SHELTER_ID": "NOT AVAILABLE" }, "geometry": { "type": "Point", "coordinates": [ -79.904320337999934, 36.051587641000026 ] } },
{ "type": "Feature", "properties": { "OBJECTID": 4001, "IPEDSID": "199324", "NAME": "PIEDMONT COMMUNITY COLLEGE", "ADDRESS": "1715 COLLEGE DR", "CITY": "ROXBORO", "STATE": "NC", "ZIP": "27573", "ZIP4": "NOT AVAILABLE", "TELEPHONE": "(336) 599-1181", "TYPE": "1", "STATUS": "A", "POPULATION": 1614, "COUNTY": "PERSON", "COUNTYFIPS": "37145", "COUNTRY": "USA", "LATITUDE": 36.431674359000056, "LONGITUDE": -78.980606830999989, "NAICS_CODE": "611210", "NAICS_DESC": "JUNIOR COLLEGES", "SOURCE": "https://nces.ed.gov/collegenavigator/?id=199324", "SOURCEDATE": "2009-10-13T00:00:00Z", "VAL_METHOD": "IMAGERY/OTHER", "VAL_DATE": "2016-07-07T00:00:00Z", "WEBSITE": "www.piedmontcc.edu/", "STFIPS": "37", "COFIPS": "145", "SECTOR": "4", "LEVEL_": "2", "HI_OFFER": "40", "DEG_GRANT": "1", "LOCALE": "41", "CLOSE_DATE": "-2", "MERGE_ID": "-2", "ALIAS": "NOT AVAILABLE", "SIZE_SET": "5", "INST_SIZE": "2", "PT_ENROLL": 964, "FT_ENROLL": 365, "TOT_ENROLL": 1329, "HOUSING": "2", "DORM_CAP": -999, "TOT_EMP": 285, "SHELTER_ID": "NOT AVAILABLE" }, "geometry": { "type": "Point", "coordinates": [ -78.980606830999989, 36.431674359000056 ] } },
{ "type": "Feature", "properties": { "OBJECTID": 4011, "IPEDSID": "481720", "NAME": "SOUTH UNIVERSITY-HIGH POINT", "ADDRESS": "3975 PREMIER DRIVE", "CITY": "HIGH POINT", "STATE": "NC", "ZIP": "27265", "ZIP4": "8320", "TELEPHONE": "(336) 812-7200", "TYPE": "3", "STATUS": "A", "POPULATION": 29, "COUNTY": "GUILFORD", "COUNTYFIPS": "37081", "COUNTRY": "USA", "LATITUDE": 36.040423394000072, "LONGITUDE": -79.963620555999967, "NAICS_CODE": "611210", "NAICS_DESC": "JUNIOR COLLEGES", "SOURCE": "https://nces.ed.gov/collegenavigator/?id=481720", "SOURCEDATE": "2015-08-10T00:00:00Z", "VAL_METHOD": "IMAGERY/OTHER", "VAL_DATE": "2015-09-02T00:00:00Z", "WEBSITE": "www.southuniversity.edu/high-point#location=High Point, NC", "STFIPS": "37", "COFIPS": "081", "SECTOR": "3", "LEVEL_": "3", "HI_OFFER": "20", "DEG_GRANT": "1", "LOCALE": "12", "CLOSE_DATE": "-2", "MERGE_ID": "-2", "ALIAS": "SOUTH UNIVERSITY-HIGH POINT", "SIZE_SET": "22", "INST_SIZE": "1", "PT_ENROLL": 5, "FT_ENROLL": 18, "TOT_ENROLL": 23, "HOUSING": "2", "DORM_CAP": -999, "TOT_EMP": 6, "SHELTER_ID": "NOT AVAILABLE" }, "geometry": { "type": "Point", "coordinates": [ -79.963620555999967, 36.040423394000072 ] } },
{ "type": "Feature", "properties": { "OBJECTID": 4100, "IPEDSID": "483425", "NAME": "ALEXANDER PAUL INSTITUTE OF HAIR DESIGN", "ADDRESS": "1011 CHARLES BLVD STE A", "CITY": "GREENVILLE", "STATE": "NC", "ZIP": "27858", "ZIP4": "3344", "TELEPHONE": "(252) 830-5536 EXT 2", "TYPE": "3", "STATUS": "A", "POPULATION": 54, "COUNTY": "PITT", "COUNTYFIPS": "37147", "COUNTRY": "USA", "LATITUDE": 35.604962441000055, "LONGITUDE": -77.371696220999979, "NAICS_CODE": "611511", "NAICS_DESC": "COSMETOLOGY AND BARBER SCHOOLS", "SOURCE": "https://nces.ed.gov/collegenavigator/?id=483425", "SOURCEDATE": "2016-01-21T00:00:00Z", "VAL_METHOD": "IMAGERY/OTHER", "VAL_DATE": "2016-01-21T00:00:00Z", "WEBSITE": "https://www.alexanderpaul.edu/", "STFIPS": "37", "COFIPS": "147", "SECTOR": "9", "LEVEL_": "2", "HI_OFFER": "0", "DEG_GRANT": "2", "LOCALE": "13", "CLOSE_DATE": "-2", "MERGE_ID": "-2", "ALIAS": "ALEXANDER PAUL INSTITUTE", "SIZE_SET": "-2", "INST_SIZE": "1", "PT_ENROLL": -999, "FT_ENROLL": 46, "TOT_ENROLL": 46, "HOUSING": "2", "DORM_CAP": -999, "TOT_EMP": 8, "SHELTER_ID": "NOT AVAILABLE" }, "geometry": { "type": "Point", "coordinates": [ -77.371696220999979, 35.604962441000055 ] } },
{ "type": "Feature", "properties": { "OBJECTID": 4129, "IPEDSID": "484020", "NAME": "BEYOND MEASURE BARBERING INSTITUTE", "ADDRESS": "CENTER STREET PLAZA", "CITY": "MEBANE", "STATE": "NC", "ZIP": "27302", "ZIP4": "2323", "TELEPHONE": "(919) 415-1437", "TYPE": "3", "STATUS": "A", "POPULATION": 50, "COUNTY": "ALAMANCE", "COUNTYFIPS": "37001", "COUNTRY": "USA", "LATITUDE": 36.098405355000068, "LONGITUDE": -79.276539213999968, "NAICS_CODE": "611511", "NAICS_DESC": "COSMETOLOGY AND BARBER SCHOOLS", "SOURCE": "https://nces.ed.gov/collegenavigator/?id=484020", "SOURCEDATE": "2016-01-21T00:00:00Z", "VAL_METHOD": "IMAGERY/OTHER", "VAL_DATE": "2016-01-21T00:00:00Z", "WEBSITE": "www.beyondmeasurebarbering.com/", "STFIPS": "37", "COFIPS": "001", "SECTOR": "9", "LEVEL_": "3", "HI_OFFER": "0", "DEG_GRANT": "2", "LOCALE": "22", "CLOSE_DATE": "-2", "MERGE_ID": "-2", "ALIAS": "NOT AVAILABLE", "SIZE_SET": "-2", "INST_SIZE": "1", "PT_ENROLL": 18, "FT_ENROLL": 27, "TOT_ENROLL": 45, "HOUSING": "2", "DORM_CAP": -999, "TOT_EMP": 5, "SHELTER_ID": "NOT AVAILABLE" }, "geometry": { "type": "Point", "coordinates": [ -79.276539213999968, 36.098405355000068 ] } },
{ "type": "Feature", "properties": { "OBJECTID": 4254, "IPEDSID": "199281", "NAME": "UNIVERSITY OF NORTH CAROLINA AT PEMBROKE", "ADDRESS": "ONE UNIVERSITY DRIVE", "CITY": "PEMBROKE", "STATE": "NC", "ZIP": "28372", "ZIP4": "1510", "TELEPHONE": "(910) 521-6000", "TYPE": "1", "STATUS": "A", "POPULATION": 9277, "COUNTY": "ROBESON", "COUNTYFIPS": "37155", "COUNTRY": "USA", "LATITUDE": 34.689258301000052, "LONGITUDE": -79.199686859999986, "NAICS_CODE": "611310", "NAICS_DESC": "COLLEGES, UNIVERSITIES, AND PROFESSIONAL SCHOOLS", "SOURCE": "https://nces.ed.gov/collegenavigator/?id=199281", "SOURCEDATE": "2009-12-31T00:00:00Z", "VAL_METHOD": "IMAGERY", "VAL_DATE": "2015-11-03T00:00:00Z", "WEBSITE": "www.uncp.edu/", "STFIPS": "37", "COFIPS": "155", "SECTOR": "1", "LEVEL_": "1", "HI_OFFER": "20", "DEG_GRANT": "1", "LOCALE": "32", "CLOSE_DATE": "-2", "MERGE_ID": "-2", "ALIAS": "UNCP", "SIZE_SET": "18", "INST_SIZE": "3", "PT_ENROLL": 2733, "FT_ENROLL": 5529, "TOT_ENROLL": 8262, "HOUSING": "1", "DORM_CAP": 2333, "TOT_EMP": 1015, "SHELTER_ID": "NOT AVAILABLE" }, "geometry": { "type": "Point", "coordinates": [ -79.199686859999986, 34.689258301000052 ] } },
{ "type": "Feature", "properties": { "OBJECTID": 4548, "IPEDSID": "198729", "NAME": "JAMES SPRUNT COMMUNITY COLLEGE", "ADDRESS": "133 JAMES SPRUNT DRIVE", "CITY": "KENANSVILLE", "STATE": "NC", "ZIP": "28349", "ZIP4": "NOT AVAILABLE", "TELEPHONE": "(910) 296-2400", "TYPE": "1", "STATUS": "A", "POPULATION": 1610, "COUNTY": "DUPLIN", "COUNTYFIPS": "37061", "COUNTRY": "USA", "LATITUDE": 34.946802, "LONGITUDE": -77.977639, "NAICS_CODE": "611210", "NAICS_DESC": "JUNIOR COLLEGES", "SOURCE": "https://nces.ed.gov/collegenavigator/?id=198729", "SOURCEDATE": "2009-12-31T00:00:00Z", "VAL_METHOD": "IMAGERY", "VAL_DATE": "2016-06-03T00:00:00Z", "WEBSITE": "www.jamessprunt.edu/", "STFIPS": "37", "COFIPS": "061", "SECTOR": "4", "LEVEL_": "1", "HI_OFFER": "40", "DEG_GRANT": "1", "LOCALE": "42", "CLOSE_DATE": "-2", "MERGE_ID": "-2", "ALIAS": "JSCC", "SIZE_SET": "3", "INST_SIZE": "2", "PT_ENROLL": 887, "FT_ENROLL": 315, "TOT_ENROLL": 1202, "HOUSING": "2", "DORM_CAP": -999, "TOT_EMP": 408, "SHELTER_ID": "NOT AVAILABLE" }, "geometry": { "type": "Point", "coordinates": [ -77.977639, 34.946802 ] } },
{ "type": "Feature", "properties": { "OBJECTID": 4549, "IPEDSID": "199412", "NAME": "QUEENS UNIVERSITY OF CHARLOTTE", "ADDRESS": "1900 SELWYN AVE", "CITY": "CHARLOTTE", "STATE": "NC", "ZIP": "28274", "ZIP4": "0001", "TELEPHONE": "(704) 337-2200", "TYPE": "2", "STATUS": "A", "POPULATION": 2881, "COUNTY": "MECKLENBURG", "COUNTYFIPS": "37119", "COUNTRY": "USA", "LATITUDE": 35.188928870000041, "LONGITUDE": -80.832227278999937, "NAICS_CODE": "611310", "NAICS_DESC": "COLLEGES, UNIVERSITIES, AND PROFESSIONAL SCHOOLS", "SOURCE": "https://nces.ed.gov/collegenavigator/?id=199412", "SOURCEDATE": "2009-10-13T00:00:00Z", "VAL_METHOD": "IMAGERY", "VAL_DATE": "2016-06-14T00:00:00Z", "WEBSITE": "www.queens.edu/", "STFIPS": "37", "COFIPS": "119", "SECTOR": "2", "LEVEL_": "3", "HI_OFFER": "20", "DEG_GRANT": "1", "LOCALE": "11", "CLOSE_DATE": "-2", "MERGE_ID": "-2", "ALIAS": "QUEENS", "SIZE_SET": "19", "INST_SIZE": "2", "PT_ENROLL": 681, "FT_ENROLL": 1657, "TOT_ENROLL": 2338, "HOUSING": "1", "DORM_CAP": 1045, "TOT_EMP": 543, "SHELTER_ID": "NOT AVAILABLE" }, "geometry": { "type": "Point", "coordinates": [ -80.832227278999937, 35.188928870000041 ] } },
{ "type": "Feature", "properties": { "OBJECTID": 4551, "IPEDSID": "199485", "NAME": "ROCKINGHAM COMMUNITY COLLEGE", "ADDRESS": "215 WRENN MEMORIAL ROAD", "CITY": "WENTWORTH", "STATE": "NC", "ZIP": "27375", "ZIP4": "NOT AVAILABLE", "TELEPHONE": "(336) 342-4261", "TYPE": "1", "STATUS": "A", "POPULATION": 2264, "COUNTY": "ROCKINGHAM", "COUNTYFIPS": "37157", "COUNTRY": "USA", "LATITUDE": 36.388685, "LONGITUDE": -79.75835, "NAICS_CODE": "611210", "NAICS_DESC": "JUNIOR COLLEGES", "SOURCE": "https://nces.ed.gov/collegenavigator/?id=199485", "SOURCEDATE": "2009-12-31T00:00:00Z", "VAL_METHOD": "IMAGERY", "VAL_DATE": "2016-06-03T00:00:00Z", "WEBSITE": "www.rockinghamcc.edu/", "STFIPS": "37", "COFIPS": "157", "SECTOR": "4", "LEVEL_": "1", "HI_OFFER": "40", "DEG_GRANT": "1", "LOCALE": "42", "CLOSE_DATE": "-2", "MERGE_ID": "-2", "ALIAS": "RCC", "SIZE_SET": "5", "INST_SIZE": "2", "PT_ENROLL": 1400, "FT_ENROLL": 522, "TOT_ENROLL": 1922, "HOUSING": "2", "DORM_CAP": -999, "TOT_EMP": 342, "SHELTER_ID": "NOT AVAILABLE" }, "geometry": { "type": "Point", "coordinates": [ -79.75835, 36.388685 ] } },
{ "type": "Feature", "properties": { "OBJECTID": 4552, "IPEDSID": "199607", "NAME": "SALEM COLLEGE", "ADDRESS": "601 S CHURCH ST", "CITY": "WINSTON-SALEM", "STATE": "NC", "ZIP": "27101", "ZIP4": "NOT AVAILABLE", "TELEPHONE": "(336) 721-2600", "TYPE": "2", "STATUS": "A", "POPULATION": 798, "COUNTY": "FORSYTH", "COUNTYFIPS": "37067", "COUNTRY": "USA", "LATITUDE": 36.087515634000056, "LONGITUDE": -80.241185870999971, "NAICS_CODE": "611310", "NAICS_DESC": "COLLEGES, UNIVERSITIES, AND PROFESSIONAL SCHOOLS", "SOURCE": "https://nces.ed.gov/collegenavigator/?id=199607", "SOURCEDATE": "2009-10-13T00:00:00Z", "VAL_METHOD": "IMAGERY/OTHER", "VAL_DATE": "2016-06-14T00:00:00Z", "WEBSITE": "www.salem.edu/", "STFIPS": "37", "COFIPS": "067", "SECTOR": "2", "LEVEL_": "3", "HI_OFFER": "20", "DEG_GRANT": "1", "LOCALE": "12", "CLOSE_DATE": "-2", "MERGE_ID": "-2", "ALIAS": "NOT AVAILABLE", "SIZE_SET": "21", "INST_SIZE": "1", "PT_ENROLL": 253, "FT_ENROLL": 383, "TOT_ENROLL": 636, "HOUSING": "1", "DORM_CAP": 441, "TOT_EMP": 162, "SHELTER_ID": "NOT AVAILABLE" }, "geometry": { "type": "Point", "coordinates": [ -80.241185870999971, 36.087515634000056 ] } },
{ "type": "Feature", "properties": { "OBJECTID": 4553, "IPEDSID": "199847", "NAME": "WAKE FOREST UNIVERSITY", "ADDRESS": "1834 WAKE FOREST ROAD", "CITY": "WINSTON-SALEM", "STATE": "NC", "ZIP": "27106", "ZIP4": "NOT AVAILABLE", "TELEPHONE": "(336) 758-5000", "TYPE": "2", "STATUS": "A", "POPULATION": 16188, "COUNTY": "FORSYTH", "COUNTYFIPS": "37067", "COUNTRY": "USA", "LATITUDE": 36.132098245000066, "LONGITUDE": -80.277942759999974, "NAICS_CODE": "611310", "NAICS_DESC": "COLLEGES, UNIVERSITIES, AND PROFESSIONAL SCHOOLS", "SOURCE": "https://nces.ed.gov/collegenavigator/?id=199847", "SOURCEDATE": "2009-12-31T00:00:00Z", "VAL_METHOD": "IMAGERY", "VAL_DATE": "2015-10-23T00:00:00Z", "WEBSITE": "www.wfu.edu/", "STFIPS": "37", "COFIPS": "067", "SECTOR": "2", "LEVEL_": "1", "HI_OFFER": "11", "DEG_GRANT": "1", "LOCALE": "12", "CLOSE_DATE": "-2", "MERGE_ID": "-2", "ALIAS": "NOT AVAILABLE", "SIZE_SET": "16", "INST_SIZE": "3", "PT_ENROLL": 739, "FT_ENROLL": 8050, "TOT_ENROLL": 8789, "HOUSING": "1", "DORM_CAP": 3834, "TOT_EMP": 7399, "SHELTER_ID": "NOT AVAILABLE" }, "geometry": { "type": "Point", "coordinates": [ -80.277942759999974, 36.132098245000066 ] } },
{ "type": "Feature", "properties": { "OBJECTID": 4554, "IPEDSID": "199971", "NAME": "CAROLINA CHRISTIAN COLLEGE", "ADDRESS": "4209 INDIANA AVENUE", "CITY": "WINSTON SALEM", "STATE": "NC", "ZIP": "27105", "ZIP4": "NOT AVAILABLE", "TELEPHONE": "(336) 744-0900", "TYPE": "2", "STATUS": "A", "POPULATION": 80, "COUNTY": "FORSYTH", "COUNTYFIPS": "37067", "COUNTRY": "USA", "LATITUDE": 36.146173025000053, "LONGITUDE": -80.256207739999979, "NAICS_CODE": "611310", "NAICS_DESC": "COLLEGES, UNIVERSITIES, AND PROFESSIONAL SCHOOLS", "SOURCE": "https://nces.ed.gov/collegenavigator/?id=199971", "SOURCEDATE": "2009-10-13T00:00:00Z", "VAL_METHOD": "IMAGERY/OTHER", "VAL_DATE": "2019-03-19T00:00:00Z", "WEBSITE": "www.carolina.edu/", "STFIPS": "37", "COFIPS": "067", "SECTOR": "2", "LEVEL_": "1", "HI_OFFER": "14", "DEG_GRANT": "1", "LOCALE": "12", "CLOSE_DATE": "-2", "MERGE_ID": "-2", "ALIAS": "NOT AVAILABLE", "SIZE_SET": "24", "INST_SIZE": "1", "PT_ENROLL": -999, "FT_ENROLL": 74, "TOT_ENROLL": 74, "HOUSING": "1", "DORM_CAP": 24, "TOT_EMP": 6, "SHELTER_ID": "NOT AVAILABLE" }, "geometry": { "type": "Point", "coordinates": [ -80.256207739999979, 36.146173025000053 ] } },
{ "type": "Feature", "properties": { "OBJECTID": 4636, "IPEDSID": "199139", "NAME": "UNIVERSITY OF NORTH CAROLINA AT CHARLOTTE", "ADDRESS": "9201 UNIVERSITY CITY BLVD", "CITY": "CHARLOTTE", "STATE": "NC", "ZIP": "28223", "ZIP4": "0001", "TELEPHONE": "(704) 687-2000", "TYPE": "1", "STATUS": "A", "POPULATION": 34319, "COUNTY": "MECKLENBURG", "COUNTYFIPS": "37119", "COUNTRY": "USA", "LATITUDE": 35.306834105000064, "LONGITUDE": -80.735790167999937, "NAICS_CODE": "611310", "NAICS_DESC": "COLLEGES, UNIVERSITIES, AND PROFESSIONAL SCHOOLS", "SOURCE": "https://nces.ed.gov/collegenavigator/?id=199139", "SOURCEDATE": "2009-10-13T00:00:00Z", "VAL_METHOD": "IMAGERY", "VAL_DATE": "2015-11-03T00:00:00Z", "WEBSITE": "https://www.uncc.edu/", "STFIPS": "37", "COFIPS": "119", "SECTOR": "1", "LEVEL_": "1", "HI_OFFER": "11", "DEG_GRANT": "1", "LOCALE": "11", "CLOSE_DATE": "-2", "MERGE_ID": "-2", "ALIAS": "UNC CHARLOTTE", "SIZE_SET": "16", "INST_SIZE": "5", "PT_ENROLL": 6471, "FT_ENROLL": 23675, "TOT_ENROLL": 30146, "HOUSING": "1", "DORM_CAP": 6039, "TOT_EMP": 4173, "SHELTER_ID": "10817726" }, "geometry": { "type": "Point", "coordinates": [ -80.735790167999937, 35.306834105000064 ] } },
{ "type": "Feature", "properties": { "OBJECTID": 4637, "IPEDSID": "199120", "NAME": "UNIVERSITY OF NORTH CAROLINA AT CHAPEL HILL", "ADDRESS": "103 SOUTH BLDG CB 9100", "CITY": "CHAPEL HILL", "STATE": "NC", "ZIP": "27599", "ZIP4": "NOT AVAILABLE", "TELEPHONE": "(919) 962-2211", "TYPE": "1", "STATUS": "A", "POPULATION": 44496, "COUNTY": "ORANGE", "COUNTYFIPS": "37135", "COUNTRY": "USA", "LATITUDE": 35.912165317000074, "LONGITUDE": -79.050969416999976, "NAICS_CODE": "611310", "NAICS_DESC": "COLLEGES, UNIVERSITIES, AND PROFESSIONAL SCHOOLS", "SOURCE": "https://nces.ed.gov/collegenavigator/?id=199120", "SOURCEDATE": "2009-10-13T00:00:00Z", "VAL_METHOD": "IMAGERY/OTHER", "VAL_DATE": "2015-11-04T00:00:00Z", "WEBSITE": "www.unc.edu/", "STFIPS": "37", "COFIPS": "135", "SECTOR": "1", "LEVEL_": "1", "HI_OFFER": "11", "DEG_GRANT": "1", "LOCALE": "13", "CLOSE_DATE": "-2", "MERGE_ID": "-2", "ALIAS": "NOT AVAILABLE", "SIZE_SET": "15", "INST_SIZE": "5", "PT_ENROLL": 4895, "FT_ENROLL": 25197, "TOT_ENROLL": 30092, "HOUSING": "1", "DORM_CAP": 10093, "TOT_EMP": 14404, "SHELTER_ID": "NOT AVAILABLE" }, "geometry": { "type": "Point", "coordinates": [ -79.050969416999976, 35.912165317000074 ] } },
{ "type": "Feature", "properties": { "OBJECTID": 4643, "IPEDSID": "444486", "NAME": "PAUL MITCHELL THE SCHOOL-GASTONIA", "ADDRESS": "284 E GARRISON BLVD", "CITY": "GASTONIA", "STATE": "NC", "ZIP": "28054", "ZIP4": "NOT AVAILABLE", "TELEPHONE": "(704) 864-8723", "TYPE": "3", "STATUS": "A", "POPULATION": 417, "COUNTY": "GASTON", "COUNTYFIPS": "37071", "COUNTRY": "USA", "LATITUDE": 35.254225009000038, "LONGITUDE": -81.179107649999935, "NAICS_CODE": "611511", "NAICS_DESC": "COSMETOLOGY AND BARBER SCHOOLS", "SOURCE": "https://nces.ed.gov/collegenavigator/?id=444486", "SOURCEDATE": "2009-10-13T00:00:00Z", "VAL_METHOD": "IMAGERY/OTHER", "VAL_DATE": "2016-06-20T00:00:00Z", "WEBSITE": "paulmitchell.edu/gastonia", "STFIPS": "37", "COFIPS": "071", "SECTOR": "9", "LEVEL_": "1", "HI_OFFER": "0", "DEG_GRANT": "2", "LOCALE": "13", "CLOSE_DATE": "-2", "MERGE_ID": "-2", "ALIAS": "NOT AVAILABLE", "SIZE_SET": "-2", "INST_SIZE": "1", "PT_ENROLL": 59, "FT_ENROLL": 327, "TOT_ENROLL": 386, "HOUSING": "2", "DORM_CAP": -999, "TOT_EMP": 31, "SHELTER_ID": "NOT AVAILABLE" }, "geometry": { "type": "Point", "coordinates": [ -81.179107649999935, 35.254225009000038 ] } },
{ "type": "Feature", "properties": { "OBJECTID": 4858, "IPEDSID": "198491", "NAME": "EDGECOMBE COMMUNITY COLLEGE", "ADDRESS": "2009 W WILSON ST", "CITY": "TARBORO", "STATE": "NC", "ZIP": "27886", "ZIP4": "NOT AVAILABLE", "TELEPHONE": "(252) 823-5166", "TYPE": "1", "STATUS": "A", "POPULATION": 1746, "COUNTY": "EDGECOMBE", "COUNTYFIPS": "37065", "COUNTRY": "USA", "LATITUDE": 35.87986668700006, "LONGITUDE": -77.571785953999949, "NAICS_CODE": "611210", "NAICS_DESC": "JUNIOR COLLEGES", "SOURCE": "https://nces.ed.gov/collegenavigator/?id=198491", "SOURCEDATE": "2009-10-13T00:00:00Z", "VAL_METHOD": "IMAGERY/OTHER", "VAL_DATE": "2016-07-07T00:00:00Z", "WEBSITE": "www.edgecombe.edu/", "STFIPS": "37", "COFIPS": "065", "SECTOR": "4", "LEVEL_": "1", "HI_OFFER": "40", "DEG_GRANT": "1", "LOCALE": "41", "CLOSE_DATE": "-2", "MERGE_ID": "-2", "ALIAS": "NOT AVAILABLE", "SIZE_SET": "8", "INST_SIZE": "2", "PT_ENROLL": 1097, "FT_ENROLL": 362, "TOT_ENROLL": 1459, "HOUSING": "2", "DORM_CAP": -999, "TOT_EMP": 287, "SHELTER_ID": "NOT AVAILABLE" }, "geometry": { "type": "Point", "coordinates": [ -77.571785953999949, 35.87986668700006 ] } },
{ "type": "Feature", "properties": { "OBJECTID": 4859, "IPEDSID": "198303", "NAME": "CHOWAN UNIVERSITY", "ADDRESS": "ONE UNIVERSITY PLACE", "CITY": "MURFREESBORO", "STATE": "NC", "ZIP": "27855", "ZIP4": "NOT AVAILABLE", "TELEPHONE": "(252) 398-6500", "TYPE": "2", "STATUS": "A", "POPULATION": 1284, "COUNTY": "HERTFORD", "COUNTYFIPS": "37091", "COUNTRY": "USA", "LATITUDE": 36.43625791900007, "LONGITUDE": -77.099140661999968, "NAICS_CODE": "611310", "NAICS_DESC": "COLLEGES, UNIVERSITIES, AND PROFESSIONAL SCHOOLS", "SOURCE": "https://nces.ed.gov/collegenavigator/?id=198303", "SOURCEDATE": "2009-10-13T00:00:00Z", "VAL_METHOD": "IMAGERY/OTHER", "VAL_DATE": "2016-06-29T00:00:00Z", "WEBSITE": "https://www.chowan.edu/", "STFIPS": "37", "COFIPS": "091", "SECTOR": "2", "LEVEL_": "2", "HI_OFFER": "20", "DEG_GRANT": "1", "LOCALE": "32", "CLOSE_DATE": "-2", "MERGE_ID": "-2", "ALIAS": "NOT AVAILABLE", "SIZE_SET": "22", "INST_SIZE": "2", "PT_ENROLL": 19, "FT_ENROLL": 1081, "TOT_ENROLL": 1100, "HOUSING": "1", "DORM_CAP": 1518, "TOT_EMP": 184, "SHELTER_ID": "NOT AVAILABLE" }, "geometry": { "type": "Point", "coordinates": [ -77.099140661999968, 36.43625791900007 ] } },
{ "type": "Feature", "properties": { "OBJECTID": 4999, "IPEDSID": "198950", "NAME": "MEREDITH COLLEGE", "ADDRESS": "3800 HILLSBOROUGH ST", "CITY": "RALEIGH", "STATE": "NC", "ZIP": "27607", "ZIP4": "5298", "TELEPHONE": "(919) 760-8600", "TYPE": "2", "STATUS": "A", "POPULATION": 2340, "COUNTY": "WAKE", "COUNTYFIPS": "37183", "COUNTRY": "USA", "LATITUDE": 35.797196904000032, "LONGITUDE": -78.689174752999975, "NAICS_CODE": "611310", "NAICS_DESC": "COLLEGES, UNIVERSITIES, AND PROFESSIONAL SCHOOLS", "SOURCE": "https://nces.ed.gov/collegenavigator/?id=198950", "SOURCEDATE": "2009-10-13T00:00:00Z", "VAL_METHOD": "IMAGERY/OTHER", "VAL_DATE": "2016-07-07T00:00:00Z", "WEBSITE": "www.meredith.edu/", "STFIPS": "37", "COFIPS": "183", "SECTOR": "2", "LEVEL_": "2", "HI_OFFER": "20", "DEG_GRANT": "1", "LOCALE": "11", "CLOSE_DATE": "-2", "MERGE_ID": "-2", "ALIAS": "MEREDITH|MERIDITH", "SIZE_SET": "21", "INST_SIZE": "2", "PT_ENROLL": 210, "FT_ENROLL": 1592, "TOT_ENROLL": 1802, "HOUSING": "1", "DORM_CAP": 1150, "TOT_EMP": 538, "SHELTER_ID": "NOT AVAILABLE" }, "geometry": { "type": "Point", "coordinates": [ -78.689174752999975, 35.797196904000032 ] } },
{ "type": "Feature", "properties": { "OBJECTID": 5026, "IPEDSID": "456968", "NAME": "HEALTH AND STYLE INSTITUTE", "ADDRESS": "500 FOUR SEASONS TOWN CENTRE", "CITY": "GREENSBORO", "STATE": "NC", "ZIP": "27407", "ZIP4": "NOT AVAILABLE", "TELEPHONE": "(336) 885-3452", "TYPE": "3", "STATUS": "A", "POPULATION": 810, "COUNTY": "GUILFORD", "COUNTYFIPS": "37081", "COUNTRY": "USA", "LATITUDE": 35.990964751000035, "LONGITUDE": -79.997544, "NAICS_CODE": "611511", "NAICS_DESC": "COSMETOLOGY AND BARBER SCHOOLS", "SOURCE": "https://nces.ed.gov/collegenavigator/?id=456968", "SOURCEDATE": "2011-06-02T00:00:00Z", "VAL_METHOD": "IMAGERY/OTHER", "VAL_DATE": "2016-06-01T00:00:00Z", "WEBSITE": "www.healthandstyle.edu/", "STFIPS": "37", "COFIPS": "081", "SECTOR": "6", "LEVEL_": "1", "HI_OFFER": "0", "DEG_GRANT": "2", "LOCALE": "11", "CLOSE_DATE": "-2", "MERGE_ID": "-2", "ALIAS": "NOT AVAILABLE", "SIZE_SET": "-2", "INST_SIZE": "1", "PT_ENROLL": 25, "FT_ENROLL": 692, "TOT_ENROLL": 717, "HOUSING": "2", "DORM_CAP": -999, "TOT_EMP": 93, "SHELTER_ID": "NOT AVAILABLE" }, "geometry": { "type": "Point", "coordinates": [ -79.997544, 35.990964751000035 ] } },
{ "type": "Feature", "properties": { "OBJECTID": 5091, "IPEDSID": "198598", "NAME": "GREENSBORO COLLEGE", "ADDRESS": "815 W MARKET ST", "CITY": "GREENSBORO", "STATE": "NC", "ZIP": "27401", "ZIP4": "1875", "TELEPHONE": "(336) 272-7102", "TYPE": "2", "STATUS": "A", "POPULATION": 1170, "COUNTY": "GUILFORD", "COUNTYFIPS": "37081", "COUNTRY": "USA", "LATITUDE": 36.071082211000032, "LONGITUDE": -79.800231652999969, "NAICS_CODE": "611310", "NAICS_DESC": "COLLEGES, UNIVERSITIES, AND PROFESSIONAL SCHOOLS", "SOURCE": "https://nces.ed.gov/collegenavigator/?id=198598", "SOURCEDATE": "2009-10-13T00:00:00Z", "VAL_METHOD": "IMAGERY", "VAL_DATE": "2016-06-14T00:00:00Z", "WEBSITE": "https://www.greensboro.edu/", "STFIPS": "37", "COFIPS": "081", "SECTOR": "2", "LEVEL_": "1", "HI_OFFER": "20", "DEG_GRANT": "1", "LOCALE": "11", "CLOSE_DATE": "-2", "MERGE_ID": "-2", "ALIAS": "NOT AVAILABLE", "SIZE_SET": "22", "INST_SIZE": "1", "PT_ENROLL": 247, "FT_ENROLL": 697, "TOT_ENROLL": 944, "HOUSING": "1", "DORM_CAP": 498, "TOT_EMP": 226, "SHELTER_ID": "NOT AVAILABLE" }, "geometry": { "type": "Point", "coordinates": [ -79.800231652999969, 36.071082211000032 ] } },
{ "type": "Feature", "properties": { "OBJECTID": 5092, "IPEDSID": "199102", "NAME": "NORTH CAROLINA A & T STATE UNIVERSITY", "ADDRESS": "1601 E MARKET ST", "CITY": "GREENSBORO", "STATE": "NC", "ZIP": "27411", "ZIP4": "NOT AVAILABLE", "TELEPHONE": "(336) 334-7500", "TYPE": "1", "STATUS": "A", "POPULATION": 14746, "COUNTY": "GUILFORD", "COUNTYFIPS": "37081", "COUNTRY": "USA", "LATITUDE": 36.076736537000045, "LONGITUDE": -79.770151666999936, "NAICS_CODE": "611310", "NAICS_DESC": "COLLEGES, UNIVERSITIES, AND PROFESSIONAL SCHOOLS", "SOURCE": "https://nces.ed.gov/collegenavigator/?id=199102", "SOURCEDATE": "2009-10-13T00:00:00Z", "VAL_METHOD": "IMAGERY", "VAL_DATE": "2016-06-14T00:00:00Z", "WEBSITE": "www.ncat.edu/", "STFIPS": "37", "COFIPS": "081", "SECTOR": "1", "LEVEL_": "2", "HI_OFFER": "12", "DEG_GRANT": "1", "LOCALE": "11", "CLOSE_DATE": "-2", "MERGE_ID": "-2", "ALIAS": "NCAT", "SIZE_SET": "16", "INST_SIZE": "4", "PT_ENROLL": 1919, "FT_ENROLL": 10834, "TOT_ENROLL": 12753, "HOUSING": "1", "DORM_CAP": 5587, "TOT_EMP": 1993, "SHELTER_ID": "NOT AVAILABLE" }, "geometry": { "type": "Point", "coordinates": [ -79.770151666999936, 36.076736537000045 ] } },
{ "type": "Feature", "properties": { "OBJECTID": 5094, "IPEDSID": "200004", "NAME": "WESTERN CAROLINA UNIVERSITY", "ADDRESS": "HIGHWAY 107", "CITY": "CULLOWHEE", "STATE": "NC", "ZIP": "28723", "ZIP4": "9646", "TELEPHONE": "(828) 227-7100", "TYPE": "1", "STATUS": "A", "POPULATION": 14067, "COUNTY": "JACKSON", "COUNTYFIPS": "37099", "COUNTRY": "USA", "LATITUDE": 35.309366910000051, "LONGITUDE": -83.184554559999981, "NAICS_CODE": "611310", "NAICS_DESC": "COLLEGES, UNIVERSITIES, AND PROFESSIONAL SCHOOLS", "SOURCE": "https://nces.ed.gov/collegenavigator/?id=200004", "SOURCEDATE": "2009-12-31T00:00:00Z", "VAL_METHOD": "IMAGERY", "VAL_DATE": "2015-10-20T00:00:00Z", "WEBSITE": "www.wcu.edu/", "STFIPS": "37", "COFIPS": "099", "SECTOR": "1", "LEVEL_": "1", "HI_OFFER": "11", "DEG_GRANT": "1", "LOCALE": "32", "CLOSE_DATE": "-2", "MERGE_ID": "-2", "ALIAS": "WESTERN", "SIZE_SET": "18", "INST_SIZE": "4", "PT_ENROLL": 2609, "FT_ENROLL": 9634, "TOT_ENROLL": 12243, "HOUSING": "1", "DORM_CAP": 4552, "TOT_EMP": 1824, "SHELTER_ID": "NOT AVAILABLE" }, "geometry": { "type": "Point", "coordinates": [ -83.184554559999981, 35.309366910000051 ] } },
{ "type": "Feature", "properties": { "OBJECTID": 5220, "IPEDSID": "460765", "NAME": "CAROLINA COLLEGE OF HAIR DESIGN", "ADDRESS": "1302 PATTON AVE SUITE 20", "CITY": "ASHEVILLE", "STATE": "NC", "ZIP": "28806", "ZIP4": "2711", "TELEPHONE": "(828) 253-2875", "TYPE": "3", "STATUS": "A", "POPULATION": 44, "COUNTY": "BUNCOMBE", "COUNTYFIPS": "37021", "COUNTRY": "USA", "LATITUDE": 35.592354257000068, "LONGITUDE": -82.534832259999973, "NAICS_CODE": "611511", "NAICS_DESC": "COSMETOLOGY AND BARBER SCHOOLS", "SOURCE": "https://nces.ed.gov/collegenavigator/?id=460765", "SOURCEDATE": "2013-06-25T00:00:00Z", "VAL_METHOD": "IMAGERY/OTHER", "VAL_DATE": "2016-05-26T00:00:00Z", "WEBSITE": "carolinacollege.com/", "STFIPS": "37", "COFIPS": "021", "SECTOR": "9", "LEVEL_": "2", "HI_OFFER": "0", "DEG_GRANT": "2", "LOCALE": "13", "CLOSE_DATE": "-2", "MERGE_ID": "-2", "ALIAS": "NOT AVAILABLE", "SIZE_SET": "-2", "INST_SIZE": "1", "PT_ENROLL": -999, "FT_ENROLL": 38, "TOT_ENROLL": 38, "HOUSING": "2", "DORM_CAP": -999, "TOT_EMP": 6, "SHELTER_ID": "NOT AVAILABLE" }, "geometry": { "type": "Point", "coordinates": [ -82.534832259999973, 35.592354257000068 ] } },
{ "type": "Feature", "properties": { "OBJECTID": 5233, "IPEDSID": "480037", "NAME": "MYCOMPUTERCAREER.EDU-RALEIGH", "ADDRESS": "5511 CAPITAL CENTER DR STE 500", "CITY": "RALEIGH", "STATE": "NC", "ZIP": "27606", "ZIP4": "NOT AVAILABLE", "TELEPHONE": "(919) 371-4820", "TYPE": "3", "STATUS": "A", "POPULATION": 2240, "COUNTY": "WAKE", "COUNTYFIPS": "37183", "COUNTRY": "USA", "LATITUDE": 35.767841412000053, "LONGITUDE": -78.727186346999986, "NAICS_CODE": "611420", "NAICS_DESC": "COMPUTER TRAINING", "SOURCE": "https://nces.ed.gov/collegenavigator/?id=480037", "SOURCEDATE": "2013-11-04T00:00:00Z", "VAL_METHOD": "IMAGERY/OTHER", "VAL_DATE": "2016-05-19T00:00:00Z", "WEBSITE": "www.mycomputercareer.edu/", "STFIPS": "37", "COFIPS": "183", "SECTOR": "9", "LEVEL_": "3", "HI_OFFER": "0", "DEG_GRANT": "2", "LOCALE": "11", "CLOSE_DATE": "-2", "MERGE_ID": "-2", "ALIAS": "MYCOMPUTERCAREER.COM, MYCOMPUTERCAREER.EDU, MYCOMPUTERCAREER", "SIZE_SET": "-2", "INST_SIZE": "2", "PT_ENROLL": -999, "FT_ENROLL": 1995, "TOT_ENROLL": 1995, "HOUSING": "2", "DORM_CAP": -999, "TOT_EMP": 245, "SHELTER_ID": "NOT AVAILABLE" }, "geometry": { "type": "Point", "coordinates": [ -78.727186346999986, 35.767841412000053 ] } },
{ "type": "Feature", "properties": { "OBJECTID": 5800, "IPEDSID": "197911", "NAME": "BARTON COLLEGE", "ADDRESS": "200 E. ACC DRIVE", "CITY": "WILSON", "STATE": "NC", "ZIP": "27893", "ZIP4": "7000", "TELEPHONE": "(252) 399-6300", "TYPE": "2", "STATUS": "A", "POPULATION": 1445, "COUNTY": "WILSON", "COUNTYFIPS": "37195", "COUNTRY": "USA", "LATITUDE": 35.735463, "LONGITUDE": -77.913805, "NAICS_CODE": "611310", "NAICS_DESC": "COLLEGES, UNIVERSITIES, AND PROFESSIONAL SCHOOLS", "SOURCE": "https://nces.ed.gov/collegenavigator/?id=197911", "SOURCEDATE": "2009-12-31T00:00:00Z", "VAL_METHOD": "IMAGERY", "VAL_DATE": "2016-06-03T00:00:00Z", "WEBSITE": "https://www.barton.edu/", "STFIPS": "37", "COFIPS": "195", "SECTOR": "2", "LEVEL_": "1", "HI_OFFER": "20", "DEG_GRANT": "1", "LOCALE": "31", "CLOSE_DATE": "-2", "MERGE_ID": "-2", "ALIAS": "NOT AVAILABLE", "SIZE_SET": "22", "INST_SIZE": "2", "PT_ENROLL": 133, "FT_ENROLL": 1044, "TOT_ENROLL": 1177, "HOUSING": "1", "DORM_CAP": 618, "TOT_EMP": 268, "SHELTER_ID": "NOT AVAILABLE" }, "geometry": { "type": "Point", "coordinates": [ -77.913805, 35.735463 ] } },
{ "type": "Feature", "properties": { "OBJECTID": 5801, "IPEDSID": "197993", "NAME": "BENNETT COLLEGE", "ADDRESS": "900 E WASHINGTON ST", "CITY": "GREENSBORO", "STATE": "NC", "ZIP": "27401", "ZIP4": "3239", "TELEPHONE": "(336) 517-2100", "TYPE": "2", "STATUS": "A", "POPULATION": 330, "COUNTY": "GUILFORD", "COUNTYFIPS": "37081", "COUNTRY": "USA", "LATITUDE": 36.067531261000056, "LONGITUDE": -79.779979638999976, "NAICS_CODE": "611310", "NAICS_DESC": "COLLEGES, UNIVERSITIES, AND PROFESSIONAL SCHOOLS", "SOURCE": "https://nces.ed.gov/collegenavigator/?id=197993", "SOURCEDATE": "2009-10-13T00:00:00Z", "VAL_METHOD": "IMAGERY", "VAL_DATE": "2016-06-14T00:00:00Z", "WEBSITE": "www.bennett.edu/", "STFIPS": "37", "COFIPS": "081", "SECTOR": "2", "LEVEL_": "3", "HI_OFFER": "30", "DEG_GRANT": "1", "LOCALE": "11", "CLOSE_DATE": "-2", "MERGE_ID": "-2", "ALIAS": "BENNETT COLLEGE / BENNETT", "SIZE_SET": "22", "INST_SIZE": "1", "PT_ENROLL": 20, "FT_ENROLL": 212, "TOT_ENROLL": 232, "HOUSING": "1", "DORM_CAP": 416, "TOT_EMP": 98, "SHELTER_ID": "NOT AVAILABLE" }, "geometry": { "type": "Point", "coordinates": [ -79.779979638999976, 36.067531261000056 ] } },
{ "type": "Feature", "properties": { "OBJECTID": 5802, "IPEDSID": "198011", "NAME": "BLADEN COMMUNITY COLLEGE", "ADDRESS": "7418 NC HWY 41 WEST", "CITY": "DUBLIN", "STATE": "NC", "ZIP": "28332", "ZIP4": "NOT AVAILABLE", "TELEPHONE": "(910) 879-5500", "TYPE": "1", "STATUS": "A", "POPULATION": 1245, "COUNTY": "BLADEN", "COUNTYFIPS": "37017", "COUNTRY": "USA", "LATITUDE": 34.646089569000026, "LONGITUDE": -78.731749158999946, "NAICS_CODE": "611210", "NAICS_DESC": "JUNIOR COLLEGES", "SOURCE": "https://nces.ed.gov/collegenavigator/?id=198011", "SOURCEDATE": "2009-12-31T00:00:00Z", "VAL_METHOD": "IMAGERY", "VAL_DATE": "2016-06-03T00:00:00Z", "WEBSITE": "www.bladencc.edu/", "STFIPS": "37", "COFIPS": "017", "SECTOR": "4", "LEVEL_": "1", "HI_OFFER": "40", "DEG_GRANT": "1", "LOCALE": "42", "CLOSE_DATE": "-2", "MERGE_ID": "-2", "ALIAS": "BCC", "SIZE_SET": "6", "INST_SIZE": "2", "PT_ENROLL": 657, "FT_ENROLL": 400, "TOT_ENROLL": 1057, "HOUSING": "2", "DORM_CAP": -999, "TOT_EMP": 188, "SHELTER_ID": "NOT AVAILABLE" }, "geometry": { "type": "Point", "coordinates": [ -78.731749158999946, 34.646089569000026 ] } },
{ "type": "Feature", "properties": { "OBJECTID": 5803, "IPEDSID": "198136", "NAME": "CAMPBELL UNIVERSITY", "ADDRESS": "143 MAIN STREET", "CITY": "BUIES CREEK", "STATE": "NC", "ZIP": "27506", "ZIP4": "NOT AVAILABLE", "TELEPHONE": "(800) 334-4111", "TYPE": "2", "STATUS": "A", "POPULATION": 7300, "COUNTY": "HARNETT", "COUNTYFIPS": "37085", "COUNTRY": "USA", "LATITUDE": 35.409333, "LONGITUDE": -78.739508, "NAICS_CODE": "611310", "NAICS_DESC": "COLLEGES, UNIVERSITIES, AND PROFESSIONAL SCHOOLS", "SOURCE": "https://nces.ed.gov/collegenavigator/?id=198136", "SOURCEDATE": "2009-12-31T00:00:00Z", "VAL_METHOD": "IMAGERY", "VAL_DATE": "2016-06-03T00:00:00Z", "WEBSITE": "https://www.campbell.edu/", "STFIPS": "37", "COFIPS": "085", "SECTOR": "2", "LEVEL_": "3", "HI_OFFER": "13", "DEG_GRANT": "1", "LOCALE": "31", "CLOSE_DATE": "-2", "MERGE_ID": "-2", "ALIAS": "NOT AVAILABLE", "SIZE_SET": "18", "INST_SIZE": "3", "PT_ENROLL": 903, "FT_ENROLL": 5061, "TOT_ENROLL": 5964, "HOUSING": "1", "DORM_CAP": 1802, "TOT_EMP": 1336, "SHELTER_ID": "NOT AVAILABLE" }, "geometry": { "type": "Point", "coordinates": [ -78.739508, 35.409333 ] } },
{ "type": "Feature", "properties": { "OBJECTID": 5804, "IPEDSID": "198190", "NAME": "CAROLINA SCHOOL OF BROADCASTING", "ADDRESS": "3435 PERFORMANCE RD", "CITY": "CHARLOTTE", "STATE": "NC", "ZIP": "28214", "ZIP4": "NOT AVAILABLE", "TELEPHONE": "(704) 395-9272", "TYPE": "3", "STATUS": "A", "POPULATION": 113, "COUNTY": "MECKLENBURG", "COUNTYFIPS": "37119", "COUNTRY": "USA", "LATITUDE": 35.255856684000037, "LONGITUDE": -80.983975928999939, "NAICS_CODE": "611519", "NAICS_DESC": "OTHER TECHNICAL AND TRADE SCHOOLS", "SOURCE": "https://nces.ed.gov/collegenavigator/?id=198190", "SOURCEDATE": "2009-10-13T00:00:00Z", "VAL_METHOD": "GEOCODE", "VAL_DATE": "2016-06-14T00:00:00Z", "WEBSITE": "www.csbradiotv.edu/", "STFIPS": "37", "COFIPS": "119", "SECTOR": "9", "LEVEL_": "1", "HI_OFFER": "0", "DEG_GRANT": "2", "LOCALE": "21", "CLOSE_DATE": "-2", "MERGE_ID": "-2", "ALIAS": "NOT AVAILABLE", "SIZE_SET": "-2", "INST_SIZE": "1", "PT_ENROLL": 11, "FT_ENROLL": 30, "TOT_ENROLL": 41, "HOUSING": "2", "DORM_CAP": -999, "TOT_EMP": 72, "SHELTER_ID": "NOT AVAILABLE" }, "geometry": { "type": "Point", "coordinates": [ -80.983975928999939, 35.255856684000037 ] } },
{ "type": "Feature", "properties": { "OBJECTID": 5805, "IPEDSID": "198464", "NAME": "EAST CAROLINA UNIVERSITY", "ADDRESS": "EAST 5TH STREET", "CITY": "GREENVILLE", "STATE": "NC", "ZIP": "27858", "ZIP4": "4353", "TELEPHONE": "(252) 328-6131", "TYPE": "1", "STATUS": "A", "POPULATION": 34648, "COUNTY": "PITT", "COUNTYFIPS": "37147", "COUNTRY": "USA", "LATITUDE": 35.606347, "LONGITUDE": -77.366199, "NAICS_CODE": "611310", "NAICS_DESC": "COLLEGES, UNIVERSITIES, AND PROFESSIONAL SCHOOLS", "SOURCE": "https://nces.ed.gov/collegenavigator/?id=198464", "SOURCEDATE": "2009-12-31T00:00:00Z", "VAL_METHOD": "IMAGERY", "VAL_DATE": "2016-06-03T00:00:00Z", "WEBSITE": "www.ecu.edu/", "STFIPS": "37", "COFIPS": "147", "SECTOR": "1", "LEVEL_": "3", "HI_OFFER": "11", "DEG_GRANT": "1", "LOCALE": "13", "CLOSE_DATE": "-2", "MERGE_ID": "-2", "ALIAS": "ECU", "SIZE_SET": "16", "INST_SIZE": "5", "PT_ENROLL": 7327, "FT_ENROLL": 21471, "TOT_ENROLL": 28798, "HOUSING": "1", "DORM_CAP": 5640, "TOT_EMP": 5850, "SHELTER_ID": "NOT AVAILABLE" }, "geometry": { "type": "Point", "coordinates": [ -77.366199, 35.606347 ] } },
{ "type": "Feature", "properties": { "OBJECTID": 5807, "IPEDSID": "198543", "NAME": "FAYETTEVILLE STATE UNIVERSITY", "ADDRESS": "1200 MURCHISON RD", "CITY": "FAYETTEVILLE", "STATE": "NC", "ZIP": "28301", "ZIP4": "4298", "TELEPHONE": "(910) 672-1111", "TYPE": "1", "STATUS": "A", "POPULATION": 7590, "COUNTY": "CUMBERLAND", "COUNTYFIPS": "37051", "COUNTRY": "USA", "LATITUDE": 35.072484591000034, "LONGITUDE": -78.894709382999963, "NAICS_CODE": "611310", "NAICS_DESC": "COLLEGES, UNIVERSITIES, AND PROFESSIONAL SCHOOLS", "SOURCE": "https://nces.ed.gov/collegenavigator/?id=198543", "SOURCEDATE": "2009-10-13T00:00:00Z", "VAL_METHOD": "IMAGERY", "VAL_DATE": "2016-06-14T00:00:00Z", "WEBSITE": "https://www.uncfsu.edu/", "STFIPS": "37", "COFIPS": "051", "SECTOR": "1", "LEVEL_": "2", "HI_OFFER": "12", "DEG_GRANT": "1", "LOCALE": "12", "CLOSE_DATE": "-2", "MERGE_ID": "-2", "ALIAS": "NOT AVAILABLE", "SIZE_SET": "19", "INST_SIZE": "3", "PT_ENROLL": 2317, "FT_ENROLL": 4409, "TOT_ENROLL": 6726, "HOUSING": "1", "DORM_CAP": 1600, "TOT_EMP": 864, "SHELTER_ID": "NOT AVAILABLE" }, "geometry": { "type": "Point", "coordinates": [ -78.894709382999963, 35.072484591000034 ] } },
{ "type": "Feature", "properties": { "OBJECTID": 5867, "IPEDSID": "436632", "NAME": "GWINNETT COLLEGE", "ADDRESS": "3200 SPRING FOREST ROAD, SUITE 214", "CITY": "RALEIGH", "STATE": "NC", "ZIP": "27616", "ZIP4": "NOT AVAILABLE", "TELEPHONE": "(919) 872-6386", "TYPE": "3", "STATUS": "A", "POPULATION": 129, "COUNTY": "WAKE", "COUNTYFIPS": "37183", "COUNTRY": "USA", "LATITUDE": 35.854291538000041, "LONGITUDE": -78.587299384999938, "NAICS_CODE": "611610", "NAICS_DESC": "FINE ARTS SCHOOLS", "SOURCE": "https://nces.ed.gov/collegenavigator/?id=436632", "SOURCEDATE": "2009-10-13T00:00:00Z", "VAL_METHOD": "IMAGERY/OTHER", "VAL_DATE": "2019-03-22T00:00:00Z", "WEBSITE": "www.gwinnettcollege.edu/", "STFIPS": "37", "COFIPS": "183", "SECTOR": "9", "LEVEL_": "3", "HI_OFFER": "0", "DEG_GRANT": "2", "LOCALE": "11", "CLOSE_DATE": "-2", "MERGE_ID": "-2", "ALIAS": "GWINNETT COLLEGE - RALEIGH CAMPUS", "SIZE_SET": "-2", "INST_SIZE": "1", "PT_ENROLL": 53, "FT_ENROLL": 48, "TOT_ENROLL": 101, "HOUSING": "2", "DORM_CAP": -999, "TOT_EMP": 28, "SHELTER_ID": "NOT AVAILABLE" }, "geometry": { "type": "Point", "coordinates": [ -78.587299384999938, 35.854291538000041 ] } },
{ "type": "Feature", "properties": { "OBJECTID": 5902, "IPEDSID": "475556", "NAME": "PAUL MITCHELL THE SCHOOL-RALEIGH", "ADDRESS": "8551 GLENWOOD AVENUE, SUITE 100", "CITY": "RALEIGH", "STATE": "NC", "ZIP": "27612", "ZIP4": "7358", "TELEPHONE": "(919) 789-4500", "TYPE": "3", "STATUS": "A", "POPULATION": 191, "COUNTY": "WAKE", "COUNTYFIPS": "37183", "COUNTRY": "USA", "LATITUDE": 35.88256612400005, "LONGITUDE": -78.740470977999962, "NAICS_CODE": "611511", "NAICS_DESC": "COSMETOLOGY AND BARBER SCHOOLS", "SOURCE": "https://nces.ed.gov/collegenavigator/?id=475556", "SOURCEDATE": "2013-11-04T00:00:00Z", "VAL_METHOD": "IMAGERY/OTHER", "VAL_DATE": "2016-05-18T00:00:00Z", "WEBSITE": "paulmitchell.edu/raleigh", "STFIPS": "37", "COFIPS": "183", "SECTOR": "9", "LEVEL_": "3", "HI_OFFER": "0", "DEG_GRANT": "2", "LOCALE": "11", "CLOSE_DATE": "-2", "MERGE_ID": "-2", "ALIAS": "NOT AVAILABLE", "SIZE_SET": "-2", "INST_SIZE": "1", "PT_ENROLL": 75, "FT_ENROLL": 102, "TOT_ENROLL": 177, "HOUSING": "2", "DORM_CAP": -999, "TOT_EMP": 14, "SHELTER_ID": "NOT AVAILABLE" }, "geometry": { "type": "Point", "coordinates": [ -78.740470977999962, 35.88256612400005 ] } },
{ "type": "Feature", "properties": { "OBJECTID": 5933, "IPEDSID": "445708", "NAME": "JOHNSON & WALES UNIVERSITY-CHARLOTTE", "ADDRESS": "ACADEMIC CENTER, 801 WEST TRADE STREET", "CITY": "CHARLOTTE", "STATE": "NC", "ZIP": "28202", "ZIP4": "NOT AVAILABLE", "TELEPHONE": "(866) 598-2427", "TYPE": "2", "STATUS": "A", "POPULATION": 1621, "COUNTY": "MECKLENBURG", "COUNTYFIPS": "37119", "COUNTRY": "USA", "LATITUDE": 35.23405834700003, "LONGITUDE": -80.85204214099997, "NAICS_CODE": "611310", "NAICS_DESC": "COLLEGES, UNIVERSITIES, AND PROFESSIONAL SCHOOLS", "SOURCE": "https://nces.ed.gov/collegenavigator/?id=445708", "SOURCEDATE": "2009-12-31T00:00:00Z", "VAL_METHOD": "IMAGERY", "VAL_DATE": "2016-06-06T00:00:00Z", "WEBSITE": "https://www.jwu.edu/campuses/charlotte/index.html", "STFIPS": "37", "COFIPS": "119", "SECTOR": "2", "LEVEL_": "3", "HI_OFFER": "20", "DEG_GRANT": "1", "LOCALE": "11", "CLOSE_DATE": "-2", "MERGE_ID": "-2", "ALIAS": "NOT AVAILABLE", "SIZE_SET": "23", "INST_SIZE": "2", "PT_ENROLL": 70, "FT_ENROLL": 1326, "TOT_ENROLL": 1396, "HOUSING": "1", "DORM_CAP": 1202, "TOT_EMP": 225, "SHELTER_ID": "NOT AVAILABLE" }, "geometry": { "type": "Point", "coordinates": [ -80.85204214099997, 35.23405834700003 ] } },
{ "type": "Feature", "properties": { "OBJECTID": 5944, "IPEDSID": "450614", "NAME": "EMPIRE BEAUTY SCHOOL-CONCORD", "ADDRESS": "SHOPPES AT KINGS GRANT 10075 WEDDINGTON RD", "CITY": "CONCORD", "STATE": "NC", "ZIP": "28027", "ZIP4": "NOT AVAILABLE", "TELEPHONE": "(800) 920-4593", "TYPE": "3", "STATUS": "A", "POPULATION": 98, "COUNTY": "CABARRUS", "COUNTYFIPS": "37025", "COUNTRY": "USA", "LATITUDE": 35.364501, "LONGITUDE": -80.713322, "NAICS_CODE": "611511", "NAICS_DESC": "COSMETOLOGY AND BARBER SCHOOLS", "SOURCE": "https://nces.ed.gov/collegenavigator/?id=450614", "SOURCEDATE": "2009-12-31T00:00:00Z", "VAL_METHOD": "IMAGERY", "VAL_DATE": "2016-06-06T00:00:00Z", "WEBSITE": "www.empire.edu/", "STFIPS": "37", "COFIPS": "025", "SECTOR": "9", "LEVEL_": "2", "HI_OFFER": "0", "DEG_GRANT": "2", "LOCALE": "13", "CLOSE_DATE": "-2", "MERGE_ID": "-2", "ALIAS": "NOT AVAILABLE", "SIZE_SET": "-2", "INST_SIZE": "1", "PT_ENROLL": 22, "FT_ENROLL": 67, "TOT_ENROLL": 89, "HOUSING": "2", "DORM_CAP": -999, "TOT_EMP": 9, "SHELTER_ID": "NOT AVAILABLE" }, "geometry": { "type": "Point", "coordinates": [ -80.713322, 35.364501 ] } },
{ "type": "Feature", "properties": { "OBJECTID": 6078, "IPEDSID": "199111", "NAME": "UNIVERSITY OF NORTH CAROLINA AT ASHEVILLE", "ADDRESS": "ONE UNIVERSITY HEIGHTS", "CITY": "ASHEVILLE", "STATE": "NC", "ZIP": "28804", "ZIP4": "8510", "TELEPHONE": "(828) 251-6600", "TYPE": "1", "STATUS": "A", "POPULATION": 4117, "COUNTY": "BUNCOMBE", "COUNTYFIPS": "37021", "COUNTRY": "USA", "LATITUDE": 35.616618150000079, "LONGITUDE": -82.565258623999966, "NAICS_CODE": "611310", "NAICS_DESC": "COLLEGES, UNIVERSITIES, AND PROFESSIONAL SCHOOLS", "SOURCE": "https://nces.ed.gov/collegenavigator/?id=199111", "SOURCEDATE": "2009-10-13T00:00:00Z", "VAL_METHOD": "IMAGERY/OTHER", "VAL_DATE": "2015-11-04T00:00:00Z", "WEBSITE": "https://www.unca.edu/", "STFIPS": "37", "COFIPS": "021", "SECTOR": "1", "LEVEL_": "2", "HI_OFFER": "20", "DEG_GRANT": "1", "LOCALE": "13", "CLOSE_DATE": "-2", "MERGE_ID": "-2", "ALIAS": "NOT AVAILABLE", "SIZE_SET": "21", "INST_SIZE": "2", "PT_ENROLL": 493, "FT_ENROLL": 2870, "TOT_ENROLL": 3363, "HOUSING": "1", "DORM_CAP": 1661, "TOT_EMP": 754, "SHELTER_ID": "NOT AVAILABLE" }, "geometry": { "type": "Point", "coordinates": [ -82.565258623999966, 35.616618150000079 ] } },
{ "type": "Feature", "properties": { "OBJECTID": 6079, "IPEDSID": "199032", "NAME": "MONTREAT COLLEGE", "ADDRESS": "310 GAITHER CIRCLE", "CITY": "MONTREAT", "STATE": "NC", "ZIP": "28757", "ZIP4": "1267", "TELEPHONE": "(828) 669-8012", "TYPE": "2", "STATUS": "A", "POPULATION": 1265, "COUNTY": "BUNCOMBE", "COUNTYFIPS": "37021", "COUNTRY": "USA", "LATITUDE": 35.646116479000057, "LONGITUDE": -82.299054083999977, "NAICS_CODE": "611310", "NAICS_DESC": "COLLEGES, UNIVERSITIES, AND PROFESSIONAL SCHOOLS", "SOURCE": "https://nces.ed.gov/collegenavigator/?id=199032", "SOURCEDATE": "2009-10-13T00:00:00Z", "VAL_METHOD": "IMAGERY/OTHER", "VAL_DATE": "2016-06-29T00:00:00Z", "WEBSITE": "https://www.montreat.edu/", "STFIPS": "37", "COFIPS": "021", "SECTOR": "2", "LEVEL_": "1", "HI_OFFER": "20", "DEG_GRANT": "1", "LOCALE": "21", "CLOSE_DATE": "-2", "MERGE_ID": "-2", "ALIAS": "NOT AVAILABLE", "SIZE_SET": "20", "INST_SIZE": "1", "PT_ENROLL": 187, "FT_ENROLL": 763, "TOT_ENROLL": 950, "HOUSING": "1", "DORM_CAP": 542, "TOT_EMP": 315, "SHELTER_ID": "NOT AVAILABLE" }, "geometry": { "type": "Point", "coordinates": [ -82.299054083999977, 35.646116479000057 ] } },
{ "type": "Feature", "properties": { "OBJECTID": 6080, "IPEDSID": "198206", "NAME": "CARTERET COMMUNITY COLLEGE", "ADDRESS": "3505 ARENDELL ST", "CITY": "MOREHEAD CITY", "STATE": "NC", "ZIP": "28557", "ZIP4": "NOT AVAILABLE", "TELEPHONE": "(252) 222-6000", "TYPE": "1", "STATUS": "A", "POPULATION": 1772, "COUNTY": "CARTERET", "COUNTYFIPS": "37031", "COUNTRY": "USA", "LATITUDE": 34.724030202000051, "LONGITUDE": -76.757825428999979, "NAICS_CODE": "611210", "NAICS_DESC": "JUNIOR COLLEGES", "SOURCE": "https://nces.ed.gov/collegenavigator/?id=198206", "SOURCEDATE": "2009-10-13T00:00:00Z", "VAL_METHOD": "IMAGERY/OTHER", "VAL_DATE": "2016-06-29T00:00:00Z", "WEBSITE": "www.carteret.edu/", "STFIPS": "37", "COFIPS": "031", "SECTOR": "4", "LEVEL_": "1", "HI_OFFER": "40", "DEG_GRANT": "1", "LOCALE": "32", "CLOSE_DATE": "-2", "MERGE_ID": "-2", "ALIAS": "NOT AVAILABLE", "SIZE_SET": "4", "INST_SIZE": "2", "PT_ENROLL": 940, "FT_ENROLL": 407, "TOT_ENROLL": 1347, "HOUSING": "2", "DORM_CAP": -999, "TOT_EMP": 425, "SHELTER_ID": "NOT AVAILABLE" }, "geometry": { "type": "Point", "coordinates": [ -76.757825428999979, 34.724030202000051 ] } },
{ "type": "Feature", "properties": { "OBJECTID": 6081, "IPEDSID": "198835", "NAME": "LENOIR-RHYNE UNIVERSITY", "ADDRESS": "625 7TH AVENUE NE", "CITY": "HICKORY", "STATE": "NC", "ZIP": "28601", "ZIP4": "NOT AVAILABLE", "TELEPHONE": "(828) 328-1741", "TYPE": "2", "STATUS": "A", "POPULATION": 3159, "COUNTY": "CATAWBA", "COUNTYFIPS": "37035", "COUNTRY": "USA", "LATITUDE": 35.739967630000024, "LONGITUDE": -81.327597830999935, "NAICS_CODE": "611310", "NAICS_DESC": "COLLEGES, UNIVERSITIES, AND PROFESSIONAL SCHOOLS", "SOURCE": "https://nces.ed.gov/collegenavigator/?id=198835", "SOURCEDATE": "2009-10-13T00:00:00Z", "VAL_METHOD": "IMAGERY/OTHER", "VAL_DATE": "2016-06-29T00:00:00Z", "WEBSITE": "www.lr.edu/", "STFIPS": "37", "COFIPS": "035", "SECTOR": "2", "LEVEL_": "2", "HI_OFFER": "14", "DEG_GRANT": "1", "LOCALE": "13", "CLOSE_DATE": "-2", "MERGE_ID": "-2", "ALIAS": "NOT AVAILABLE", "SIZE_SET": "20", "INST_SIZE": "2", "PT_ENROLL": 581, "FT_ENROLL": 2105, "TOT_ENROLL": 2686, "HOUSING": "1", "DORM_CAP": 1039, "TOT_EMP": 473, "SHELTER_ID": "NOT AVAILABLE" }, "geometry": { "type": "Point", "coordinates": [ -81.327597830999935, 35.739967630000024 ] } },
{ "type": "Feature", "properties": { "OBJECTID": 6082, "IPEDSID": "198905", "NAME": "MARTIN COMMUNITY COLLEGE", "ADDRESS": "1161 KEHUKEE PK RD", "CITY": "WILLIAMSTON", "STATE": "NC", "ZIP": "27892", "ZIP4": "9988", "TELEPHONE": "(252) 792-1521", "TYPE": "1", "STATUS": "A", "POPULATION": 1163, "COUNTY": "MARTIN", "COUNTYFIPS": "37117", "COUNTRY": "USA", "LATITUDE": 35.836304074000054, "LONGITUDE": -77.09491251299994, "NAICS_CODE": "611210", "NAICS_DESC": "JUNIOR COLLEGES", "SOURCE": "https://nces.ed.gov/collegenavigator/?id=198905", "SOURCEDATE": "2009-10-13T00:00:00Z", "VAL_METHOD": "IMAGERY/OTHER", "VAL_DATE": "2016-06-29T00:00:00Z", "WEBSITE": "www.martincc.edu/", "STFIPS": "37", "COFIPS": "117", "SECTOR": "4", "LEVEL_": "2", "HI_OFFER": "40", "DEG_GRANT": "1", "LOCALE": "41", "CLOSE_DATE": "-2", "MERGE_ID": "-2", "ALIAS": "NOT AVAILABLE", "SIZE_SET": "8", "INST_SIZE": "1", "PT_ENROLL": 723, "FT_ENROLL": 221, "TOT_ENROLL": 944, "HOUSING": "2", "DORM_CAP": -999, "TOT_EMP": 219, "SHELTER_ID": "NOT AVAILABLE" }, "geometry": { "type": "Point", "coordinates": [ -77.09491251299994, 35.836304074000054 ] } },
{ "type": "Feature", "properties": { "OBJECTID": 6083, "IPEDSID": "198923", "NAME": "MCDOWELL TECHNICAL COMMUNITY COLLEGE", "ADDRESS": "54 COLLEGE DRIVE", "CITY": "MARION", "STATE": "NC", "ZIP": "28752", "ZIP4": "8728", "TELEPHONE": "(828) 652-6021", "TYPE": "1", "STATUS": "A", "POPULATION": 1240, "COUNTY": "MCDOWELL", "COUNTYFIPS": "37111", "COUNTRY": "USA", "LATITUDE": 35.656254112000056, "LONGITUDE": -81.962079607999954, "NAICS_CODE": "611210", "NAICS_DESC": "JUNIOR COLLEGES", "SOURCE": "https://nces.ed.gov/collegenavigator/?id=198923", "SOURCEDATE": "2009-10-13T00:00:00Z", "VAL_METHOD": "IMAGERY/OTHER", "VAL_DATE": "2016-06-29T00:00:00Z", "WEBSITE": "https://www.mcdowelltech.edu/", "STFIPS": "37", "COFIPS": "111", "SECTOR": "4", "LEVEL_": "2", "HI_OFFER": "40", "DEG_GRANT": "1", "LOCALE": "41", "CLOSE_DATE": "-2", "MERGE_ID": "-2", "ALIAS": "NOT AVAILABLE", "SIZE_SET": "6", "INST_SIZE": "2", "PT_ENROLL": 778, "FT_ENROLL": 270, "TOT_ENROLL": 1048, "HOUSING": "2", "DORM_CAP": -999, "TOT_EMP": 192, "SHELTER_ID": "NOT AVAILABLE" }, "geometry": { "type": "Point", "coordinates": [ -81.962079607999954, 35.656254112000056 ] } },
{ "type": "Feature", "properties": { "OBJECTID": 6084, "IPEDSID": "199209", "NAME": "NORTH CAROLINA WESLEYAN COLLEGE", "ADDRESS": "3400 N WESLEYAN BLVD", "CITY": "ROCKY MOUNT", "STATE": "NC", "ZIP": "27804", "ZIP4": "NOT AVAILABLE", "TELEPHONE": "(252) 985-5100", "TYPE": "2", "STATUS": "A", "POPULATION": 2102, "COUNTY": "NASH", "COUNTYFIPS": "37127", "COUNTRY": "USA", "LATITUDE": 36.017472953000038, "LONGITUDE": -77.77207797799997, "NAICS_CODE": "611310", "NAICS_DESC": "COLLEGES, UNIVERSITIES, AND PROFESSIONAL SCHOOLS", "SOURCE": "https://nces.ed.gov/collegenavigator/?id=199209", "SOURCEDATE": "2009-10-13T00:00:00Z", "VAL_METHOD": "IMAGERY/OTHER", "VAL_DATE": "2016-06-29T00:00:00Z", "WEBSITE": "www.ncwc.edu/", "STFIPS": "37", "COFIPS": "127", "SECTOR": "2", "LEVEL_": "3", "HI_OFFER": "20", "DEG_GRANT": "1", "LOCALE": "13", "CLOSE_DATE": "-2", "MERGE_ID": "-2", "ALIAS": "NOT AVAILABLE", "SIZE_SET": "22", "INST_SIZE": "2", "PT_ENROLL": 250, "FT_ENROLL": 1470, "TOT_ENROLL": 1720, "HOUSING": "1", "DORM_CAP": 820, "TOT_EMP": 382, "SHELTER_ID": "NOT AVAILABLE" }, "geometry": { "type": "Point", "coordinates": [ -77.77207797799997, 36.017472953000038 ] } },
{ "type": "Feature", "properties": { "OBJECTID": 6085, "IPEDSID": "198978", "NAME": "PLATT COLLEGE-MILLER-MOTTE-WILMINGTON", "ADDRESS": "5000 MARKET STREET", "CITY": "WILMINGTON", "STATE": "NC", "ZIP": "28405", "ZIP4": "NOT AVAILABLE", "TELEPHONE": "(910) 392-4660", "TYPE": "3", "STATUS": "A", "POPULATION": 2761, "COUNTY": "NEW HANOVER", "COUNTYFIPS": "37129", "COUNTRY": "USA", "LATITUDE": 34.242676249000056, "LONGITUDE": -77.882272100999955, "NAICS_CODE": "611310", "NAICS_DESC": "COLLEGES, UNIVERSITIES, AND PROFESSIONAL SCHOOLS", "SOURCE": "https://nces.ed.gov/collegenavigator/?id=198978", "SOURCEDATE": "2009-10-13T00:00:00Z", "VAL_METHOD": "IMAGERY/OTHER", "VAL_DATE": "2016-06-29T00:00:00Z", "WEBSITE": "https://www.miller-motte.edu/", "STFIPS": "37", "COFIPS": "129", "SECTOR": "3", "LEVEL_": "1", "HI_OFFER": "30", "DEG_GRANT": "1", "LOCALE": "12", "CLOSE_DATE": "-2", "MERGE_ID": "-2", "ALIAS": "MILLER-MOTTE COLLEGE", "SIZE_SET": "26", "INST_SIZE": "2", "PT_ENROLL": 116, "FT_ENROLL": 2390, "TOT_ENROLL": 2506, "HOUSING": "2", "DORM_CAP": -999, "TOT_EMP": 255, "SHELTER_ID": "NOT AVAILABLE" }, "geometry": { "type": "Point", "coordinates": [ -77.882272100999955, 34.242676249000056 ] } },
{ "type": "Feature", "properties": { "OBJECTID": 6086, "IPEDSID": "198330", "NAME": "COASTAL CAROLINA COMMUNITY COLLEGE", "ADDRESS": "444 WESTERN BLVD", "CITY": "JACKSONVILLE", "STATE": "NC", "ZIP": "28546", "ZIP4": "6816", "TELEPHONE": "(910) 455-1221", "TYPE": "1", "STATUS": "A", "POPULATION": 4160, "COUNTY": "ONSLOW", "COUNTYFIPS": "37133", "COUNTRY": "USA", "LATITUDE": 34.771687352000072, "LONGITUDE": -77.384784756999977, "NAICS_CODE": "611210", "NAICS_DESC": "JUNIOR COLLEGES", "SOURCE": "https://nces.ed.gov/collegenavigator/?id=198330", "SOURCEDATE": "2009-10-13T00:00:00Z", "VAL_METHOD": "IMAGERY/OTHER", "VAL_DATE": "2016-06-29T00:00:00Z", "WEBSITE": "www.coastalcarolina.edu/", "STFIPS": "37", "COFIPS": "133", "SECTOR": "4", "LEVEL_": "1", "HI_OFFER": "40", "DEG_GRANT": "1", "LOCALE": "13", "CLOSE_DATE": "-2", "MERGE_ID": "-2", "ALIAS": "NOT AVAILABLE", "SIZE_SET": "8", "INST_SIZE": "2", "PT_ENROLL": 1959, "FT_ENROLL": 1612, "TOT_ENROLL": 3571, "HOUSING": "2", "DORM_CAP": -999, "TOT_EMP": 589, "SHELTER_ID": "NOT AVAILABLE" }, "geometry": { "type": "Point", "coordinates": [ -77.384784756999977, 34.771687352000072 ] } },
{ "type": "Feature", "properties": { "OBJECTID": 6087, "IPEDSID": "199263", "NAME": "PAMLICO COMMUNITY COLLEGE", "ADDRESS": "5049 HWY 306 SOUTH", "CITY": "GRANTSBORO", "STATE": "NC", "ZIP": "28529", "ZIP4": "NOT AVAILABLE", "TELEPHONE": "(252) 249-1851 EXT 3084", "TYPE": "1", "STATUS": "A", "POPULATION": 460, "COUNTY": "PAMLICO", "COUNTYFIPS": "37137", "COUNTRY": "USA", "LATITUDE": 35.069041642000059, "LONGITUDE": -76.833833289999973, "NAICS_CODE": "611210", "NAICS_DESC": "JUNIOR COLLEGES", "SOURCE": "https://nces.ed.gov/collegenavigator/?id=199263", "SOURCEDATE": "2009-10-13T00:00:00Z", "VAL_METHOD": "IMAGERY/OTHER", "VAL_DATE": "2016-06-29T00:00:00Z", "WEBSITE": "www.pamlicocc.edu/", "STFIPS": "37", "COFIPS": "137", "SECTOR": "4", "LEVEL_": "3", "HI_OFFER": "40", "DEG_GRANT": "1", "LOCALE": "42", "CLOSE_DATE": "-2", "MERGE_ID": "-2", "ALIAS": "PCC", "SIZE_SET": "9", "INST_SIZE": "1", "PT_ENROLL": 286, "FT_ENROLL": 76, "TOT_ENROLL": 362, "HOUSING": "2", "DORM_CAP": -999, "TOT_EMP": 98, "SHELTER_ID": "10793735" }, "geometry": { "type": "Point", "coordinates": [ -76.833833289999973, 35.069041642000059 ] } },
{ "type": "Feature", "properties": { "OBJECTID": 6088, "IPEDSID": "198066", "NAME": "BREVARD COLLEGE", "ADDRESS": "ONE BREVARD COLLEGE DRIVE", "CITY": "BREVARD", "STATE": "NC", "ZIP": "28712", "ZIP4": "NOT AVAILABLE", "TELEPHONE": "(828) 884-8332", "TYPE": "2", "STATUS": "A", "POPULATION": 1096, "COUNTY": "TRANSYLVANIA", "COUNTYFIPS": "37175", "COUNTRY": "USA", "LATITUDE": 35.23765660600003, "LONGITUDE": -82.729762992999952, "NAICS_CODE": "611310", "NAICS_DESC": "COLLEGES, UNIVERSITIES, AND PROFESSIONAL SCHOOLS", "SOURCE": "https://nces.ed.gov/collegenavigator/?id=198066", "SOURCEDATE": "2009-10-13T00:00:00Z", "VAL_METHOD": "IMAGERY", "VAL_DATE": "2016-06-29T00:00:00Z", "WEBSITE": "https://www.brevard.edu/", "STFIPS": "37", "COFIPS": "175", "SECTOR": "2", "LEVEL_": "3", "HI_OFFER": "30", "DEG_GRANT": "1", "LOCALE": "31", "CLOSE_DATE": "-2", "MERGE_ID": "-2", "ALIAS": "NOT AVAILABLE", "SIZE_SET": "22", "INST_SIZE": "1", "PT_ENROLL": 27, "FT_ENROLL": 801, "TOT_ENROLL": 828, "HOUSING": "1", "DORM_CAP": 717, "TOT_EMP": 268, "SHELTER_ID": "NOT AVAILABLE" }, "geometry": { "type": "Point", "coordinates": [ -82.729762992999952, 35.23765660600003 ] } },
{ "type": "Feature", "properties": { "OBJECTID": 6089, "IPEDSID": "199582", "NAME": "SAINT AUGUSTINE'S UNIVERSITY", "ADDRESS": "1315 OAKWOOD AVENUE", "CITY": "RALEIGH", "STATE": "NC", "ZIP": "27610", "ZIP4": "2298", "TELEPHONE": "(919) 516-4000", "TYPE": "2", "STATUS": "A", "POPULATION": 1405, "COUNTY": "WAKE", "COUNTYFIPS": "37183", "COUNTRY": "USA", "LATITUDE": 35.785031905000039, "LONGITUDE": -78.621805784999935, "NAICS_CODE": "611310", "NAICS_DESC": "COLLEGES, UNIVERSITIES, AND PROFESSIONAL SCHOOLS", "SOURCE": "https://nces.ed.gov/collegenavigator/?id=199582", "SOURCEDATE": "2009-10-13T00:00:00Z", "VAL_METHOD": "IMAGERY/OTHER", "VAL_DATE": "2016-06-29T00:00:00Z", "WEBSITE": "www.st-aug.edu/", "STFIPS": "37", "COFIPS": "183", "SECTOR": "2", "LEVEL_": "1", "HI_OFFER": "30", "DEG_GRANT": "1", "LOCALE": "11", "CLOSE_DATE": "-2", "MERGE_ID": "-2", "ALIAS": "NOT AVAILABLE", "SIZE_SET": "22", "INST_SIZE": "2", "PT_ENROLL": 188, "FT_ENROLL": 922, "TOT_ENROLL": 1110, "HOUSING": "1", "DORM_CAP": 1026, "TOT_EMP": 295, "SHELTER_ID": "NOT AVAILABLE" }, "geometry": { "type": "Point", "coordinates": [ -78.621805784999935, 35.785031905000039 ] } },
{ "type": "Feature", "properties": { "OBJECTID": 6090, "IPEDSID": "199005", "NAME": "MITCHELLS ACADEMY", "ADDRESS": "2616 FOREST HILLS ROAD", "CITY": "WILSON", "STATE": "NC", "ZIP": "27893", "ZIP4": "NOT AVAILABLE", "TELEPHONE": "(919) 469-5807", "TYPE": "3", "STATUS": "A", "POPULATION": 29, "COUNTY": "WILSON", "COUNTYFIPS": "37195", "COUNTRY": "USA", "LATITUDE": 35.718199778000042, "LONGITUDE": -77.953015444999949, "NAICS_CODE": "611511", "NAICS_DESC": "COSMETOLOGY AND BARBER SCHOOLS", "SOURCE": "https://nces.ed.gov/collegenavigator/?id=199005", "SOURCEDATE": "2009-10-13T00:00:00Z", "VAL_METHOD": "IMAGERY/OTHER", "VAL_DATE": "2016-06-29T00:00:00Z", "WEBSITE": "www.mitchells.edu/", "STFIPS": "37", "COFIPS": "195", "SECTOR": "9", "LEVEL_": "1", "HI_OFFER": "0", "DEG_GRANT": "2", "LOCALE": "31", "CLOSE_DATE": "-2", "MERGE_ID": "-2", "ALIAS": "NOT AVAILABLE", "SIZE_SET": "-2", "INST_SIZE": "1", "PT_ENROLL": -999, "FT_ENROLL": 27, "TOT_ENROLL": 27, "HOUSING": "2", "DORM_CAP": -999, "TOT_EMP": 2, "SHELTER_ID": "NOT AVAILABLE" }, "geometry": { "type": "Point", "coordinates": [ -77.953015444999949, 35.718199778000042 ] } },
{ "type": "Feature", "properties": { "OBJECTID": 6199, "IPEDSID": "199272", "NAME": "WILLIAM PEACE UNIVERSITY", "ADDRESS": "15 E PEACE ST", "CITY": "RALEIGH", "STATE": "NC", "ZIP": "27604", "ZIP4": "1194", "TELEPHONE": "(919) 508-2000", "TYPE": "2", "STATUS": "A", "POPULATION": 1062, "COUNTY": "WAKE", "COUNTYFIPS": "37183", "COUNTRY": "USA", "LATITUDE": 35.789214172000072, "LONGITUDE": -78.63775874199996, "NAICS_CODE": "611310", "NAICS_DESC": "COLLEGES, UNIVERSITIES, AND PROFESSIONAL SCHOOLS", "SOURCE": "https://nces.ed.gov/collegenavigator/?id=199272", "SOURCEDATE": "2009-10-13T00:00:00Z", "VAL_METHOD": "IMAGERY/OTHER", "VAL_DATE": "2015-10-16T00:00:00Z", "WEBSITE": "www.peace.edu/", "STFIPS": "37", "COFIPS": "183", "SECTOR": "2", "LEVEL_": "1", "HI_OFFER": "30", "DEG_GRANT": "1", "LOCALE": "11", "CLOSE_DATE": "-2", "MERGE_ID": "-2", "ALIAS": "PEACE", "SIZE_SET": "21", "INST_SIZE": "1", "PT_ENROLL": 97, "FT_ENROLL": 733, "TOT_ENROLL": 830, "HOUSING": "1", "DORM_CAP": 446, "TOT_EMP": 232, "SHELTER_ID": "NOT AVAILABLE" }, "geometry": { "type": "Point", "coordinates": [ -78.63775874199996, 35.789214172000072 ] } },
{ "type": "Feature", "properties": { "OBJECTID": 6200, "IPEDSID": "199157", "NAME": "NORTH CAROLINA CENTRAL UNIVERSITY", "ADDRESS": "1801 FAYETTEVILLE STREET", "CITY": "DURHAM", "STATE": "NC", "ZIP": "27707", "ZIP4": "NOT AVAILABLE", "TELEPHONE": "(919) 530-6100", "TYPE": "1", "STATUS": "A", "POPULATION": 9482, "COUNTY": "DURHAM", "COUNTYFIPS": "37063", "COUNTRY": "USA", "LATITUDE": 35.974237002000052, "LONGITUDE": -78.898601759999963, "NAICS_CODE": "611310", "NAICS_DESC": "COLLEGES, UNIVERSITIES, AND PROFESSIONAL SCHOOLS", "SOURCE": "https://nces.ed.gov/collegenavigator/?id=199157", "SOURCEDATE": "2009-10-13T00:00:00Z", "VAL_METHOD": "IMAGERY", "VAL_DATE": "2016-07-07T00:00:00Z", "WEBSITE": "https://www.nccu.edu/", "STFIPS": "37", "COFIPS": "063", "SECTOR": "1", "LEVEL_": "3", "HI_OFFER": "11", "DEG_GRANT": "1", "LOCALE": "11", "CLOSE_DATE": "-2", "MERGE_ID": "-2", "ALIAS": "NOT AVAILABLE", "SIZE_SET": "18", "INST_SIZE": "3", "PT_ENROLL": 1771, "FT_ENROLL": 6307, "TOT_ENROLL": 8078, "HOUSING": "1", "DORM_CAP": 3496, "TOT_EMP": 1404, "SHELTER_ID": "NOT AVAILABLE" }, "geometry": { "type": "Point", "coordinates": [ -78.898601759999963, 35.974237002000052 ] } },
{ "type": "Feature", "properties": { "OBJECTID": 6217, "IPEDSID": "198321", "NAME": "CLEVELAND COMMUNITY COLLEGE", "ADDRESS": "137 S POST RD", "CITY": "SHELBY", "STATE": "NC", "ZIP": "28152", "ZIP4": "6224", "TELEPHONE": "(704) 669-4081", "TYPE": "1", "STATUS": "A", "POPULATION": 2719, "COUNTY": "CLEVELAND", "COUNTYFIPS": "37045", "COUNTRY": "USA", "LATITUDE": 35.279833376000056, "LONGITUDE": -81.492855518999988, "NAICS_CODE": "611210", "NAICS_DESC": "JUNIOR COLLEGES", "SOURCE": "https://nces.ed.gov/collegenavigator/?id=198321", "SOURCEDATE": "2009-12-10T00:00:00Z", "VAL_METHOD": "IMAGERY/OTHER", "VAL_DATE": "2016-06-07T00:00:00Z", "WEBSITE": "www.clevelandcc.edu/", "STFIPS": "37", "COFIPS": "045", "SECTOR": "4", "LEVEL_": "1", "HI_OFFER": "40", "DEG_GRANT": "1", "LOCALE": "31", "CLOSE_DATE": "-2", "MERGE_ID": "-2", "ALIAS": "NOT AVAILABLE", "SIZE_SET": "5", "INST_SIZE": "2", "PT_ENROLL": 1583, "FT_ENROLL": 686, "TOT_ENROLL": 2269, "HOUSING": "2", "DORM_CAP": -999, "TOT_EMP": 450, "SHELTER_ID": "NOT AVAILABLE" }, "geometry": { "type": "Point", "coordinates": [ -81.492855518999988, 35.279833376000056 ] } },
{ "type": "Feature", "properties": { "OBJECTID": 6218, "IPEDSID": "199999", "NAME": "WINSTON-SALEM STATE UNIVERSITY", "ADDRESS": "601 MARTIN LUTHER KING JR DR", "CITY": "WINSTON-SALEM", "STATE": "NC", "ZIP": "27110", "ZIP4": "0001", "TELEPHONE": "(336) 750-2000", "TYPE": "1", "STATUS": "A", "POPULATION": 6120, "COUNTY": "FORSYTH", "COUNTYFIPS": "37067", "COUNTRY": "USA", "LATITUDE": 36.087079168000059, "LONGITUDE": -80.224819339999954, "NAICS_CODE": "611310", "NAICS_DESC": "COLLEGES, UNIVERSITIES, AND PROFESSIONAL SCHOOLS", "SOURCE": "https://nces.ed.gov/collegenavigator/?id=199999", "SOURCEDATE": "2009-12-10T00:00:00Z", "VAL_METHOD": "IMAGERY", "VAL_DATE": "2015-10-15T00:00:00Z", "WEBSITE": "www.wssu.edu/", "STFIPS": "37", "COFIPS": "067", "SECTOR": "1", "LEVEL_": "2", "HI_OFFER": "13", "DEG_GRANT": "1", "LOCALE": "12", "CLOSE_DATE": "-2", "MERGE_ID": "-2", "ALIAS": "WSSU", "SIZE_SET": "19", "INST_SIZE": "3", "PT_ENROLL": 816, "FT_ENROLL": 4353, "TOT_ENROLL": 5169, "HOUSING": "1", "DORM_CAP": 2454, "TOT_EMP": 951, "SHELTER_ID": "NOT AVAILABLE" }, "geometry": { "type": "Point", "coordinates": [ -80.224819339999954, 36.087079168000059 ] } },
{ "type": "Feature", "properties": { "OBJECTID": 6219, "IPEDSID": "198570", "NAME": "GASTON COLLEGE", "ADDRESS": "201 HWY 321 S", "CITY": "DALLAS", "STATE": "NC", "ZIP": "28034", "ZIP4": "NOT AVAILABLE", "TELEPHONE": "(704) 922-6200", "TYPE": "1", "STATUS": "A", "POPULATION": 6080, "COUNTY": "GASTON", "COUNTYFIPS": "37071", "COUNTRY": "USA", "LATITUDE": 35.312015332000044, "LONGITUDE": -81.189481335999972, "NAICS_CODE": "611210", "NAICS_DESC": "JUNIOR COLLEGES", "SOURCE": "https://nces.ed.gov/collegenavigator/?id=198570", "SOURCEDATE": "2009-10-13T00:00:00Z", "VAL_METHOD": "IMAGERY", "VAL_DATE": "2016-07-07T00:00:00Z", "WEBSITE": "www.gaston.edu/", "STFIPS": "37", "COFIPS": "071", "SECTOR": "4", "LEVEL_": "1", "HI_OFFER": "40", "DEG_GRANT": "1", "LOCALE": "22", "CLOSE_DATE": "-2", "MERGE_ID": "-2", "ALIAS": "NOT AVAILABLE", "SIZE_SET": "4", "INST_SIZE": "3", "PT_ENROLL": 4115, "FT_ENROLL": 1230, "TOT_ENROLL": 5345, "HOUSING": "2", "DORM_CAP": -999, "TOT_EMP": 735, "SHELTER_ID": "NOT AVAILABLE" }, "geometry": { "type": "Point", "coordinates": [ -81.189481335999972, 35.312015332000044 ] } },
{ "type": "Feature", "properties": { "OBJECTID": 6220, "IPEDSID": "197984", "NAME": "BELMONT ABBEY COLLEGE", "ADDRESS": "100 BELMONT-MT HOLLY ROAD", "CITY": "BELMONT", "STATE": "NC", "ZIP": "28012", "ZIP4": "1802", "TELEPHONE": "(704) 461-6700", "TYPE": "2", "STATUS": "A", "POPULATION": 1771, "COUNTY": "GASTON", "COUNTYFIPS": "37071", "COUNTRY": "USA", "LATITUDE": 35.261275707000038, "LONGITUDE": -81.041846891999967, "NAICS_CODE": "611310", "NAICS_DESC": "COLLEGES, UNIVERSITIES, AND PROFESSIONAL SCHOOLS", "SOURCE": "https://nces.ed.gov/collegenavigator/?id=197984", "SOURCEDATE": "2009-10-13T00:00:00Z", "VAL_METHOD": "IMAGERY", "VAL_DATE": "2016-07-07T00:00:00Z", "WEBSITE": "www.belmontabbeycollege.edu/", "STFIPS": "37", "COFIPS": "071", "SECTOR": "2", "LEVEL_": "2", "HI_OFFER": "30", "DEG_GRANT": "1", "LOCALE": "22", "CLOSE_DATE": "-2", "MERGE_ID": "-2", "ALIAS": "BAC", "SIZE_SET": "22", "INST_SIZE": "2", "PT_ENROLL": 77, "FT_ENROLL": 1390, "TOT_ENROLL": 1467, "HOUSING": "1", "DORM_CAP": 920, "TOT_EMP": 304, "SHELTER_ID": "NOT AVAILABLE" }, "geometry": { "type": "Point", "coordinates": [ -81.041846891999967, 35.261275707000038 ] } },
{ "type": "Feature", "properties": { "OBJECTID": 6221, "IPEDSID": "198756", "NAME": "JOHNSON C SMITH UNIVERSITY", "ADDRESS": "100 BEATTIES FORD ROAD", "CITY": "CHARLOTTE", "STATE": "NC", "ZIP": "28216", "ZIP4": "5398", "TELEPHONE": "(704) 378-1000", "TYPE": "2", "STATUS": "A", "POPULATION": 1668, "COUNTY": "MECKLENBURG", "COUNTYFIPS": "37119", "COUNTRY": "USA", "LATITUDE": 35.243032586000027, "LONGITUDE": -80.857251203999965, "NAICS_CODE": "611310", "NAICS_DESC": "COLLEGES, UNIVERSITIES, AND PROFESSIONAL SCHOOLS", "SOURCE": "https://nces.ed.gov/collegenavigator/?id=198756", "SOURCEDATE": "2009-12-10T00:00:00Z", "VAL_METHOD": "IMAGERY/OTHER", "VAL_DATE": "2016-06-07T00:00:00Z", "WEBSITE": "www.jcsu.edu/", "STFIPS": "37", "COFIPS": "119", "SECTOR": "2", "LEVEL_": "2", "HI_OFFER": "20", "DEG_GRANT": "1", "LOCALE": "11", "CLOSE_DATE": "-2", "MERGE_ID": "-2", "ALIAS": "JCSU", "SIZE_SET": "21", "INST_SIZE": "2", "PT_ENROLL": 64, "FT_ENROLL": 1242, "TOT_ENROLL": 1306, "HOUSING": "1", "DORM_CAP": 1179, "TOT_EMP": 362, "SHELTER_ID": "NOT AVAILABLE" }, "geometry": { "type": "Point", "coordinates": [ -80.857251203999965, 35.243032586000027 ] } },
{ "type": "Feature", "properties": { "OBJECTID": 6282, "IPEDSID": "490948", "NAME": "BULL CITY DURHAM BEAUTY AND BARBER COLLEGE", "ADDRESS": "931 E MAIN ST", "CITY": "DURHAM", "STATE": "NC", "ZIP": "27701", "ZIP4": "NOT AVAILABLE", "TELEPHONE": "(984) 439-2400", "TYPE": "3", "STATUS": "A", "POPULATION": 23, "COUNTY": "DURHAM", "COUNTYFIPS": "37063", "COUNTRY": "USA", "LATITUDE": 35.991726518000064, "LONGITUDE": -78.920059486999946, "NAICS_CODE": "611511", "NAICS_DESC": "COSMETOLOGY AND BARBER SCHOOLS", "SOURCE": "https://nces.ed.gov/collegenavigator/?id=490948", "SOURCEDATE": "2018-11-06T00:00:00Z", "VAL_METHOD": "IMAGERY/OTHER", "VAL_DATE": "2018-11-13T00:00:00Z", "WEBSITE": "www.bullcitybarbercollege.com/", "STFIPS": "37", "COFIPS": "063", "SECTOR": "9", "LEVEL_": "2", "HI_OFFER": "0", "DEG_GRANT": "2", "LOCALE": "11", "CLOSE_DATE": "-2", "MERGE_ID": "-2", "ALIAS": "BULL CITY DURHAM BEAUTY AND BARBER COLLEGE BULL CITY BARBER COLLEGE", "SIZE_SET": "-2", "INST_SIZE": "1", "PT_ENROLL": -999, "FT_ENROLL": 18, "TOT_ENROLL": 18, "HOUSING": "2", "DORM_CAP": -999, "TOT_EMP": 5, "SHELTER_ID": "NOT AVAILABLE" }, "geometry": { "type": "Point", "coordinates": [ -78.920059486999946, 35.991726518000064 ] } },
{ "type": "Feature", "properties": { "OBJECTID": 6330, "IPEDSID": "492421", "NAME": "NO GREASE BARBER SCHOOL", "ADDRESS": "3120 WILKINSON BLVD", "CITY": "CHARLOTTE", "STATE": "NC", "ZIP": "28208", "ZIP4": "NOT AVAILABLE", "TELEPHONE": "(980) 819-9481", "TYPE": "3", "STATUS": "A", "POPULATION": 17, "COUNTY": "MECKLENBURG", "COUNTYFIPS": "37119", "COUNTRY": "USA", "LATITUDE": 35.224662711000065, "LONGITUDE": -80.891859203999957, "NAICS_CODE": "611511", "NAICS_DESC": "COSMETOLOGY AND BARBER SCHOOLS", "SOURCE": "https://nces.ed.gov/collegenavigator/?id=492421", "SOURCEDATE": "2019-12-04T00:00:00Z", "VAL_METHOD": "IMAGERY/OTHER", "VAL_DATE": "2019-12-12T00:00:00Z", "WEBSITE": "www.nogreasebarberschool.com/", "STFIPS": "37", "COFIPS": "119", "SECTOR": "9", "LEVEL_": "3", "HI_OFFER": "0", "DEG_GRANT": "2", "LOCALE": "11", "CLOSE_DATE": "-2", "MERGE_ID": "-2", "ALIAS": "NOT AVAILABLE", "SIZE_SET": "-2", "INST_SIZE": "1", "PT_ENROLL": -999, "FT_ENROLL": 11, "TOT_ENROLL": 11, "HOUSING": "2", "DORM_CAP": -999, "TOT_EMP": 6, "SHELTER_ID": "NOT AVAILABLE" }, "geometry": { "type": "Point", "coordinates": [ -80.891859203999957, 35.224662711000065 ] } },
{ "type": "Feature", "properties": { "OBJECTID": 6344, "IPEDSID": "233602", "NAME": "SOUTHEASTERN FREE WILL BAPTIST BIBLE COLLEGE", "ADDRESS": "532 EAGLE ROCK ROAD", "CITY": "WENDELL", "STATE": "NC", "ZIP": "27591", "ZIP4": "9072", "TELEPHONE": "(919) 365-7711 EXT 100", "TYPE": "2", "STATUS": "A", "POPULATION": 120, "COUNTY": "WAKE", "COUNTYFIPS": "37183", "COUNTRY": "USA", "LATITUDE": 35.80023, "LONGITUDE": -78.4164, "NAICS_CODE": "611310", "NAICS_DESC": "COLLEGES, UNIVERSITIES, AND PROFESSIONAL SCHOOLS", "SOURCE": "https://nces.ed.gov/collegenavigator/?id=233602", "SOURCEDATE": "2020-11-03T00:00:00Z", "VAL_METHOD": "IMAGERY/OTHER", "VAL_DATE": "2020-11-03T00:00:00Z", "WEBSITE": "www.sfwbc.edu/", "STFIPS": "37", "COFIPS": "183", "SECTOR": "2", "LEVEL_": "1", "HI_OFFER": "30", "DEG_GRANT": "1", "LOCALE": "41", "CLOSE_DATE": "-2", "MERGE_ID": "-2", "ALIAS": "SOUTHEASTERN FREE WILL BAPTIST COLLEGE", "SIZE_SET": "-2", "INST_SIZE": "1", "PT_ENROLL": 10, "FT_ENROLL": 52, "TOT_ENROLL": 62, "HOUSING": "1", "DORM_CAP": 120, "TOT_EMP": 58, "SHELTER_ID": "NOT AVAILABLE" }, "geometry": { "type": "Point", "coordinates": [ -78.4164, 35.80023 ] } },
{ "type": "Feature", "properties": { "OBJECTID": 6367, "IPEDSID": "494001", "NAME": "ELEVATE SALON INSTITUTE", "ADDRESS": "300 EAST MAIN STREET, #100", "CITY": "DURHAM", "STATE": "NC", "ZIP": "27701", "ZIP4": "0000", "TELEPHONE": "(919) 670-3070 EXT 91967", "TYPE": "3", "STATUS": "A", "POPULATION": 151, "COUNTY": "DURHAM", "COUNTYFIPS": "37063", "COUNTRY": "USA", "LATITUDE": 35.993485, "LONGITUDE": -78.898377, "NAICS_CODE": "611519", "NAICS_DESC": "OTHER TECHNICAL AND TRADE SCHOOLS", "SOURCE": "https://nces.ed.gov/collegenavigator/?id=494001", "SOURCEDATE": "2020-11-03T00:00:00Z", "VAL_METHOD": "IMAGERY/OTHER", "VAL_DATE": "2020-11-03T00:00:00Z", "WEBSITE": "www.esidurham.com/", "STFIPS": "37", "COFIPS": "063", "SECTOR": "9", "LEVEL_": "1", "HI_OFFER": "0", "DEG_GRANT": "2", "LOCALE": "11", "CLOSE_DATE": "-2", "MERGE_ID": "-2", "ALIAS": "THE INSTITUTE", "SIZE_SET": "-2", "INST_SIZE": "1", "PT_ENROLL": 75, "FT_ENROLL": 49, "TOT_ENROLL": 124, "HOUSING": "2", "DORM_CAP": -999, "TOT_EMP": 27, "SHELTER_ID": "NOT AVAILABLE" }, "geometry": { "type": "Point", "coordinates": [ -78.898377, 35.993485 ] } },
{ "type": "Feature", "properties": { "OBJECTID": 6488, "IPEDSID": "494001", "NAME": "ELEVATE SALON INSTITUTE", "ADDRESS": "300 EAST MAIN STREET, #100", "CITY": "DURHAM", "STATE": "NC", "ZIP": "27701", "ZIP4": "0000", "TELEPHONE": "(919) 670-3070", "TYPE": "3", "STATUS": "N", "POPULATION": 105, "COUNTY": "DURHAM", "COUNTYFIPS": "37063", "COUNTRY": "USA", "LATITUDE": 35.993474653000078, "LONGITUDE": -78.898410263999949, "NAICS_CODE": "611519", "NAICS_DESC": "OTHER TECHNICAL AND TRADE SCHOOLS", "SOURCE": "https://nces.ed.gov/GLOBALLOCATOR/col_info_popup.asp?ID=494001", "SOURCEDATE": "2020-09-15T00:00:00Z", "VAL_METHOD": "IMAGERY/OTHER", "VAL_DATE": "2021-05-12T00:00:00Z", "WEBSITE": "www.esidurham.com", "STFIPS": "37", "COFIPS": "063", "SECTOR": "9", "LEVEL_": "3", "HI_OFFER": "2", "DEG_GRANT": "2", "LOCALE": "11", "CLOSE_DATE": "-2", "MERGE_ID": "-2", "ALIAS": "THE INSTITUTE", "SIZE_SET": "-2", "INST_SIZE": "1", "PT_ENROLL": 59, "FT_ENROLL": 31, "TOT_ENROLL": 90, "HOUSING": "2", "DORM_CAP": -999, "TOT_EMP": 15, "SHELTER_ID": "NOT AVAILABLE" }, "geometry": { "type": "Point", "coordinates": [ -78.898410263999949, 35.993474653000078 ] } },
{ "type": "Feature", "properties": { "OBJECTID": 6544, "IPEDSID": "494764", "NAME": "AVIATION INSTITUTE OF MAINTENANCE-CHARLOTTE", "ADDRESS": "7421 E. INDEPENDENCE BOULEVARD", "CITY": "CHARLOTTE", "STATE": "NC", "ZIP": "28227", "ZIP4": "9403", "TELEPHONE": "(980) 785-0700", "TYPE": "3", "STATUS": "N", "POPULATION": 47, "COUNTY": "MECKLENBURG", "COUNTYFIPS": "37119", "COUNTRY": "USA", "LATITUDE": 35.161768608000045, "LONGITUDE": -80.736498176999987, "NAICS_CODE": "611210", "NAICS_DESC": "JUNIOR COLLEGES", "SOURCE": "https://nces.ed.gov/GLOBALLOCATOR/col_info_popup.asp?ID=494764", "SOURCEDATE": "2020-09-15T00:00:00Z", "VAL_METHOD": "IMAGERY/OTHER", "VAL_DATE": "2021-05-12T00:00:00Z", "WEBSITE": "https://www.aviationmaintenance.edu/campuses/charlotte-nc/index.html", "STFIPS": "37", "COFIPS": "119", "SECTOR": "6", "LEVEL_": "2", "HI_OFFER": "4", "DEG_GRANT": "2", "LOCALE": "11", "CLOSE_DATE": "-2", "MERGE_ID": "-2", "ALIAS": "NOT AVAILABLE", "SIZE_SET": "-2", "INST_SIZE": "1", "PT_ENROLL": -999, "FT_ENROLL": 22, "TOT_ENROLL": 22, "HOUSING": "2", "DORM_CAP": -999, "TOT_EMP": 25, "SHELTER_ID": "NOT AVAILABLE" }, "geometry": { "type": "Point", "coordinates": [ -80.736498176999987, 35.161768608000045 ] } }
]
}
